City,Lat,Lng,Max Temp,Humidity,Cloudiness,Wind Speed,Country,Date
Port Alfred,-33.5906,26.891,70.41,77,13,24.87,ZA,1611605802
San Miguel,13.4833,-88.1833,98.6,36,0,9.22,SV,1611605802
Vaini,-21.2,-175.2,80.6,89,20,6.91,TO,1611605803
Ushuaia,-54.8,-68.3,53.6,40,40,9.22,AR,1611605803
Port-Gentil,-0.7193,8.7815,80.6,83,40,4.61,GA,1611605803
Albany,42.6001,-73.9662,30.99,44,40,3.71,US,1611605803
Māngrol,21.1167,70.1167,63.82,29,0,13.58,IN,1611605803
Lebu,-37.6167,-73.65,61.43,64,0,17.43,CL,1611605804
Eureka,40.8021,-124.1637,46.99,76,40,5.75,US,1611605804
Saint George,37.1041,-113.5841,41.0,87,75,11.5,US,1611605710
Jamestown,42.097,-79.2353,36.0,64,1,4.61,US,1611605693
Maravilha,-26.7608,-53.1725,75.99,80,100,5.82,BR,1611605804
George Town,5.4112,100.3354,79.0,94,20,2.3,MY,1611605804
Rikitea,-23.1203,-134.9692,79.54,74,8,15.52,PF,1611605804
Dikson,73.5069,80.5464,-25.31,84,100,13.47,RU,1611605805
Bengkulu,-3.8004,102.2655,75.47,88,100,5.3,ID,1611605805
Klyuchi,52.2667,79.1667,-3.73,92,88,4.94,RU,1611605805
Altay,47.8667,88.1167,-1.7,77,100,1.45,CN,1611605805
Kapaa,22.0752,-159.319,77.0,88,20,6.91,US,1611605805
Narsaq,60.9167,-46.05,28.4,31,20,26.46,GL,1611605805
Kumhāri,21.2667,81.5167,63.34,50,0,4.92,IN,1611605805
Ponta do Sol,32.6667,-17.1,62.01,77,49,1.99,PT,1611605805
Nuuk,64.1835,-51.7216,17.6,73,20,3.44,GL,1611605770
Busselton,-33.65,115.3333,53.01,87,0,7.29,AU,1611605806
Hay River,60.8156,-115.7999,-20.2,69,100,2.3,CA,1611605806
Constitución,-35.3333,-72.4167,69.26,40,0,16.11,CL,1611605806
Tutóia,-2.7619,-42.2744,80.6,89,75,10.36,BR,1611605806
Mataura,-46.1927,168.8643,69.01,67,100,5.99,NZ,1611605806
Tres Picos,15.8667,-93.5333,88.75,42,8,8.01,MX,1611605806
Barrow,71.2906,-156.7887,-5.8,71,1,12.66,US,1611605806
Morro Bay,35.3658,-120.8499,54.0,67,82,13.0,US,1611605807
Punta Arenas,-53.15,-70.9167,51.8,46,75,27.63,CL,1611605807
Cody,44.5263,-109.0565,30.0,50,1,4.61,US,1611605807
Lensk,60.7253,114.9278,-38.7,78,82,2.08,RU,1611605807
Upernavik,72.7868,-56.1549,4.39,84,0,2.89,GL,1611605807
Vestmannaeyjar,63.4427,-20.2734,33.64,82,100,27.87,IS,1611605807
Fortuna,40.5982,-124.1573,46.99,87,90,4.61,US,1611605807
Nome,64.5011,-165.4064,-0.4,92,20,4.61,US,1611605808
Xiongzhou,25.1167,114.3,55.0,77,39,3.24,CN,1611605808
Yellowknife,62.456,-114.3525,-20.2,69,20,10.36,CA,1611605581
Puerto Ayora,-0.7393,-90.3518,86.0,62,40,16.11,EC,1611605808
Ensley,30.5188,-87.2728,73.4,78,90,14.97,US,1611605808
Sabang,5.8933,95.3214,80.78,80,100,12.28,ID,1611605808
Carauari,-4.8828,-66.8958,85.95,67,77,2.42,BR,1611605808
Minudasht,37.2289,55.3747,44.51,51,0,6.93,IR,1611605809
Norman Wells,65.282,-126.8329,-13.0,84,75,4.61,CA,1611605553
Feicheng,35.2606,117.9675,40.89,91,100,5.68,CN,1611605809
Mount Gambier,-37.8333,140.7667,59.0,94,90,6.91,AU,1611605809
Zheleznodorozhnyy,55.7503,38.0042,34.0,100,90,13.42,RU,1611605809
Hong Kong,22.2855,114.1577,64.99,86,1,1.01,HK,1611605776
Urshel'skiy,55.6783,40.2169,31.44,98,100,9.51,RU,1611605809
Henties Bay,-22.116,14.2845,70.0,87,100,8.05,NA,1611605809
Gazojak,41.1875,61.4036,27.75,92,0,9.84,TM,1611605810
Manjacaze,-24.7117,33.8828,74.98,93,100,1.92,MZ,1611605810
Tasiilaq,65.6145,-37.6368,10.4,56,20,12.66,GL,1611605810
Avarua,-21.2078,-159.775,84.2,74,75,16.11,CK,1611605609
Vanimo,-2.6741,141.3028,77.16,84,94,4.29,PG,1611605810
Tezu,27.9167,96.1667,58.5,41,15,4.05,IN,1611605810
Salalah,17.0151,54.0924,69.8,64,0,4.61,OM,1611605810
Cape Town,-33.9258,18.4232,70.0,82,0,17.27,ZA,1611605522
Mitsamiouli,-11.3847,43.2844,81.1,71,91,7.83,KM,1611605811
Hasaki,35.7333,140.8333,35.6,93,20,6.91,JP,1611605680
Kumul,42.8,93.45,15.64,73,45,1.36,CN,1611605811
Poya,-21.35,165.15,76.8,79,63,5.79,NC,1611605811
Atuona,-9.8,-139.0333,78.22,77,87,17.81,PF,1611605811
Ende,-8.8432,121.6623,77.58,74,99,3.71,ID,1611605811
East London,-33.0153,27.9116,71.37,77,87,20.2,ZA,1611605793
Butaritari,3.0707,172.7902,79.14,79,94,10.0,KI,1611605812
Aitape,-3.1374,142.3475,77.76,82,100,4.41,PG,1611605812
Lavrentiya,65.5833,-171.0,-7.33,85,14,6.85,RU,1611605563
Denizli Province,37.8402,29.0698,48.2,71,75,5.75,TR,1611605812
Comodoro Rivadavia,-45.8667,-67.5,69.8,19,20,24.16,AR,1611605812
Korla,41.7597,86.1469,19.24,84,2,2.19,CN,1611605812
Hilo,19.7297,-155.09,73.4,88,90,21.85,US,1611605775
Nanortalik,60.1432,-45.2371,22.73,88,0,11.48,GL,1611605813
Saint-Philippe,-21.3585,55.7679,77.0,78,0,2.3,RE,1611605813
Praia,14.9215,-23.5087,71.6,68,0,13.8,CV,1611605813
Correntina,-13.3433,-44.6367,86.68,45,21,5.32,BR,1611605813
Nikolskoye,59.7035,30.7861,37.99,87,90,4.47,RU,1611605813
Merauke,-8.4667,140.3333,79.23,84,59,10.47,ID,1611605813
Takaka,-40.85,172.8,66.0,75,0,1.01,NZ,1611605814
Soma,39.1855,27.6094,51.8,87,75,4.61,TR,1611605814
Kutum,14.2,24.6667,63.32,25,85,10.94,SD,1611605814
Gannan,47.9147,123.5031,-6.66,89,0,4.52,CN,1611605814
Blantyre,-15.785,35.0085,68.25,85,100,2.89,MW,1611605814
Kaitangata,-46.2817,169.8464,62.01,66,100,8.01,NZ,1611605814
Khatanga,71.9667,102.5,-18.6,87,100,10.29,RU,1611605814
Ilulissat,69.2167,-51.1,6.8,51,1,9.22,GL,1611605814
San Quintín,30.4833,-115.95,56.8,54,53,28.77,MX,1611605815
Hermanus,-34.4187,19.2345,66.99,75,0,7.36,ZA,1611605815
Zaria,11.1113,7.7227,72.81,20,60,9.24,NG,1611605815
Yarkovo,57.4028,67.0786,5.7,95,100,7.78,RU,1611605815
Forsytheganj,52.6333,29.7333,41.09,93,100,16.73,BY,1611605815
Meulaboh,4.1363,96.1285,76.41,86,98,5.26,ID,1611605606
Codrington,-38.2667,141.9667,60.75,87,100,12.03,AU,1611605815
Kapuskasing,49.4169,-82.4331,12.2,72,100,6.91,CA,1611605816
Chokurdakh,70.6333,147.9167,-38.13,80,99,7.31,RU,1611605816
Bryan,30.6744,-96.37,73.4,28,90,14.97,US,1611605816
New Norfolk,-42.7826,147.0587,62.01,72,95,4.0,AU,1611605816
Oni,42.5794,43.4425,36.46,64,16,4.79,GE,1611605816
Mezen',65.8522,44.24,33.75,98,100,4.59,RU,1611605816
Bluff,-46.6,168.3333,69.01,67,100,5.99,NZ,1611605816
Aykhal,66.0,111.5,-38.2,79,45,1.72,RU,1611605816
Port Blair,11.6667,92.75,74.73,77,51,6.31,IN,1611605531
Barabai,-2.5833,115.3833,73.53,92,100,0.56,ID,1611605817
Nicoya,10.1483,-85.452,89.6,48,0,16.11,CR,1611605817
Gold Coast,-28.0,153.4333,69.01,88,36,1.14,AU,1611605817
Carnarvon,-24.8667,113.6333,71.6,73,1,17.27,AU,1611605817
Laguna,38.421,-121.4238,51.8,40,1,14.97,US,1611605786
Içara,-28.7133,-49.3,81.82,82,100,5.57,BR,1611605817
Tuktoyaktuk,69.4541,-133.0374,-2.2,84,90,10.36,CA,1611605817
Mehamn,71.0357,27.8492,26.6,93,90,20.71,NO,1611605817
Paracuru,-3.41,-39.0306,81.0,78,97,13.0,BR,1611605818
Kultuk,51.7208,103.6956,0.88,86,100,3.18,RU,1611605818
Bosaso,11.2842,49.1816,73.04,71,10,9.62,SO,1611605526
Souillac,-20.5167,57.5167,75.2,88,20,3.44,MU,1611605818
Thompson,55.7435,-97.8558,-7.6,71,75,4.61,CA,1611605818
Awjilah,29.1081,21.2869,55.35,38,52,3.29,LY,1611605818
La Plata,-34.9215,-57.9545,93.99,40,0,4.0,AR,1611605818
Gamba,-2.65,10.0,78.44,88,100,6.44,GA,1611605818
Mar del Plata,-38.0023,-57.5575,87.8,58,20,13.8,AR,1611605818
Verkhnevilyuysk,63.4453,120.3167,-48.84,76,14,3.0,RU,1611605819
Hithadhoo,-0.6,73.0833,81.63,73,67,3.74,MV,1611605819
Asău,46.4333,26.4,39.2,60,0,13.8,RO,1611605819
Lagoa,39.05,-27.9833,62.01,92,100,26.91,PT,1611605819
Alofi,-19.0595,-169.9187,80.6,89,100,4.61,NU,1611605819
Lorengau,-2.0226,147.2712,81.46,72,100,2.91,PG,1611605819
Cidreira,-30.1811,-50.2056,79.57,75,0,15.97,BR,1611605820
Vila Franca do Campo,37.7167,-25.4333,63.0,94,75,13.8,PT,1611605820
Oranjemund,-28.55,16.4333,64.33,89,11,7.11,NA,1611605820
Hobart,-42.8794,147.3294,62.01,94,90,4.61,AU,1611605778
Cayenne,4.9333,-52.3333,82.4,78,75,11.5,GF,1611605820
Talnakh,69.4865,88.3972,-30.46,82,100,8.46,RU,1611605820
Sioux Lookout,50.1001,-91.917,-4.0,71,20,4.61,CA,1611605820
Swan Hill,-35.3378,143.5544,73.17,80,65,8.5,AU,1611605820
Pacific Grove,36.6177,-121.9166,51.8,58,40,25.32,US,1611605820
Shetpe,44.1667,52.1167,32.67,91,62,17.87,KZ,1611605821
Korem,12.5058,39.5228,49.75,55,2,2.19,ET,1611605821
Aripuanã,-9.1667,-60.6333,84.04,77,99,1.79,BR,1611605821
Cap Malheureux,-19.9842,57.6142,75.99,84,13,3.0,MU,1611605821
Onega,63.9061,38.1404,35.35,97,100,7.87,RU,1611605821
Port Elizabeth,-33.918,25.5701,68.0,83,40,10.36,ZA,1611605821
Kamenka,51.3223,42.7678,33.01,95,100,15.5,RU,1611605822
Arraial do Cabo,-22.9661,-42.0278,86.0,65,0,20.71,BR,1611605822
Tiksi,71.6872,128.8694,-44.9,78,85,7.16,RU,1611605822
Tilichiki,60.4667,166.1,1.18,91,100,11.59,RU,1611605822
Grindavik,63.8424,-22.4338,28.4,50,75,28.77,IS,1611605822
Rawson,-43.3002,-65.1023,80.38,21,0,21.39,AR,1611605822
Hobyo,5.3505,48.5268,75.63,75,97,19.73,SO,1611605822
Changji,44.0167,87.3167,6.8,85,75,6.71,CN,1611605822
Saint Paul Harbor,57.79,-152.4072,39.2,70,90,14.97,US,1611605823
Bay Roberts,47.5999,-53.2648,28.0,83,100,1.99,CA,1611605823
Husavik,66.0449,-17.3389,23.0,86,75,3.44,IS,1611605823
Coahuayana Viejo,18.7333,-103.6833,78.8,53,40,6.91,MX,1611605823
Chase,50.8165,-119.6857,32.0,69,100,1.14,CA,1611605823
Obertyn,48.7003,25.1701,36.0,89,100,18.99,UA,1611605823
Lüderitz,-26.6481,15.1594,68.25,70,71,22.86,NA,1611605823
Pabbi,34.0106,71.7989,48.2,46,1,4.61,PK,1611605654
Vuktyl,63.8567,57.3094,34.14,98,100,9.17,RU,1611605824
Nantucket,41.2835,-70.0995,33.8,44,1,10.36,US,1611605824
Yilan,24.757,121.753,59.0,99,2,2.57,TW,1611605824
Peleduy,59.6289,112.7406,-30.46,81,100,3.78,RU,1611605824
Mariehamn,60.0973,19.9348,32.0,100,90,4.61,AX,1611605759
Celendín,-6.8703,-78.1517,71.6,43,75,6.91,PE,1611605824
Porto Walter,-8.2686,-72.7439,89.31,55,73,3.04,BR,1611605824
Padang,-0.9492,100.3543,78.8,83,75,3.44,ID,1611605824
Miepherkeim,38.1419,41.0081,33.8,93,100,3.44,TR,1611605825
Porto-Novo,6.4965,2.6036,82.4,78,80,8.05,BJ,1611605726
Kodīnar,20.7903,70.7031,64.99,28,0,13.2,IN,1611605825
Arkhangelsk,64.5401,40.5433,33.8,100,90,6.71,RU,1611605825
Ribeira Grande,38.5167,-28.7,64.4,94,75,16.11,PT,1611605825
Bambous Virieux,-20.3428,57.7575,75.99,88,20,3.44,MU,1611605825
Flinders,-34.5833,150.8552,72.0,93,0,1.01,AU,1611605825
Katsuura,35.1333,140.3,42.8,75,20,10.36,JP,1611605826
Castelo Branco,39.8222,-7.4909,55.99,91,100,4.0,PT,1611605826
Nikolayevskaya,47.6139,41.5023,32.36,96,42,10.2,RU,1611605826
Richards Bay,-28.783,32.0377,68.63,92,100,7.16,ZA,1611605799
Gornopravdinsk,60.05,69.9,-12.39,89,100,10.11,RU,1611605826
Longyearbyen,78.2186,15.6401,15.8,73,40,25.32,SJ,1611605826
Tombouctou,20.0,-3.0,70.05,16,17,7.18,ML,1611605827
Ţahţā,26.7693,31.5021,53.6,50,0,3.44,EG,1611605827
Cherskiy,68.75,161.3,-37.28,83,78,2.19,RU,1611605827
Atherton,53.5237,-2.4935,37.99,76,100,3.0,GB,1611605827
Calama,-22.4667,-68.9333,75.2,11,40,24.16,CL,1611605827
Bredasdorp,-34.5322,20.0403,64.4,82,0,1.14,ZA,1611605827
Frontera,26.9333,-101.45,75.99,35,0,5.59,MX,1611605828
Saint-François,46.4154,3.9054,34.0,86,75,9.22,FR,1611605828
Batagay-Alyta,67.8006,130.4114,-33.02,82,94,2.1,RU,1611605828
Nizhnetroitskiy,54.3385,53.6833,27.81,97,100,9.24,RU,1611605828
Castro,-24.7911,-50.0119,70.43,91,100,4.18,BR,1611605828
Kastamonu Province,41.5,33.6667,34.36,90,53,3.74,TR,1611605828
Tual,-5.6667,132.75,84.36,74,100,16.87,ID,1611605828
Acapulco de Juárez,16.8634,-99.8901,82.4,74,1,6.91,MX,1611605774
Isla del Bosque,22.7333,-105.85,75.2,41,75,12.66,MX,1611605829
Póvoa de Varzim,41.3834,-8.7636,57.2,100,75,2.3,PT,1611605829
Northam,51.0333,-4.2167,37.99,85,10,5.01,GB,1611605829
Myaundzha,63.0494,147.1858,-30.37,76,2,2.62,RU,1611605829
San Patricio,28.017,-97.5169,82.4,61,90,16.73,US,1611605829
Buraidah,26.326,43.975,59.0,47,0,4.61,SA,1611605629
Tazovsky,67.4667,78.7,-30.82,82,100,14.92,RU,1611605829
Muisne,0.6,-80.0333,80.6,94,90,6.91,EC,1611605830
Aban,56.67,96.06,-31.34,83,100,1.05,RU,1611605530
Alyangula,-13.8483,136.4192,80.6,89,40,6.91,AU,1611605830
Rathdrum,47.8137,-116.892,30.99,80,40,5.75,US,1611605830
Esperance,-33.8667,121.9,57.2,88,40,3.44,AU,1611605830
Qaanaaq,77.484,-69.3632,6.49,66,0,8.19,GL,1611605711
Bonthe,7.5264,-12.505,78.58,79,0,8.16,SL,1611605830
Micheweni,-4.9667,39.8333,79.23,83,5,11.16,TZ,1611605831
Plettenberg Bay,-34.0527,23.3716,68.13,83,0,5.21,ZA,1611605831
Aklavik,68.2191,-135.0107,-9.4,77,88,2.3,CA,1611605831
Chunskiy,56.0815,99.6342,-22.59,85,100,2.51,RU,1611605831
Hays,30.0502,-98.0336,73.0,31,0,14.25,US,1611605831
Bima,-8.4667,118.7167,76.84,80,96,1.36,ID,1611605831
Galveston,29.3669,-94.9669,73.99,83,90,14.97,US,1611605801
Cabo San Lucas,22.8909,-109.9124,71.01,45,1,19.57,MX,1611605831
Berck,50.4,1.6,41.0,70,0,11.5,FR,1611605832
Leningradskiy,69.3833,178.4167,-15.77,84,100,16.49,RU,1611605832
Saint-Augustin,51.226,-58.6502,33.24,93,99,8.05,CA,1611605832
Saskylakh,71.9167,114.0833,-35.46,80,0,4.72,RU,1611605832
Banjarmasin,-3.3244,114.591,77.0,94,90,1.14,ID,1611605824
Namwala,-15.7504,26.4384,67.42,92,100,2.44,ZM,1611605832
Spearfish,44.4908,-103.8594,23.0,86,90,9.22,US,1611605832
Praia da Vitória,38.7333,-27.0667,64.4,94,75,22.19,PT,1611605832
Ouésso,1.6136,16.0517,81.16,48,97,3.49,CG,1611605833
Tura,25.5198,90.2201,56.91,56,0,3.31,IN,1611605833
Soyo,-6.1349,12.3689,79.9,81,49,7.7,AO,1611605833
Nouadhibou,20.931,-17.0347,75.2,46,0,12.66,MR,1611605833
Geraldton,-28.7667,114.6,70.18,68,92,13.24,AU,1611605833
Santa Maria,-29.6842,-53.8069,87.8,58,75,5.75,BR,1611605606
Neiafu,-18.65,-173.9833,77.0,88,90,4.61,TO,1611605833
Manacapuru,-3.2997,-60.6206,86.0,70,40,4.61,BR,1611605834
Jérémie,18.65,-74.1167,79.79,69,57,6.67,HT,1611605829
Pangnirtung,66.1451,-65.7125,12.2,67,1,3.2,CA,1611605834
North Bend,43.4065,-124.2243,42.8,87,90,9.22,US,1611605834
Berlevåg,70.8578,29.0864,28.4,86,75,28.77,NO,1611605834
Los Llanos de Aridane,28.6585,-17.9182,66.2,72,75,8.05,ES,1611605834
Ancud,-41.8697,-73.8203,64.4,39,0,11.5,CL,1611605834
Chui,-33.6971,-53.4616,85.19,50,16,11.41,UY,1611605834
Waipawa,-41.4122,175.5153,71.01,77,2,19.57,NZ,1611605834
Ambon City,-3.6954,128.1814,78.01,15,100,11.86,ID,1611605667
Kruisfontein,-34.0033,24.7314,70.0,79,0,5.99,ZA,1611605835
Port Hardy,50.6996,-127.4199,37.4,87,75,8.05,CA,1611605710
Seoul,37.5683,126.9778,41.0,87,100,2.3,KR,1611605643
Saint-Louis,16.3333,-15.0,84.2,17,0,8.95,SN,1611605835
Mayumba,-3.432,10.6554,79.07,86,94,4.7,GA,1611605665
Guerrero Negro,27.9769,-114.0611,64.65,48,7,22.66,MX,1611605835
Wanaka,-44.7,169.15,61.65,62,81,9.57,NZ,1611605835
Isangel,-19.55,169.2667,80.24,82,100,18.3,VU,1611605638
Airai,-8.9266,125.4092,60.53,100,100,3.0,TL,1611605836
Paamiut,61.994,-49.6678,22.5,82,100,7.25,GL,1611605836
Ilhabela,-23.7781,-45.3581,80.28,75,90,3.2,BR,1611605836
Mahébourg,-20.4081,57.7,75.2,88,20,3.44,MU,1611605836
Tsaratanana,-16.7833,47.65,74.61,85,100,3.09,MG,1611605836
Strezhevoy,60.7333,77.5889,-40.0,74,100,11.18,RU,1611605836
Faanui,-16.4833,-151.75,80.29,77,42,16.24,PF,1611605836
Marsh Harbour,26.5412,-77.0636,73.29,77,100,18.59,BS,1611605677
Ocós,14.5094,-92.1933,91.4,55,20,11.5,GT,1611605837
Turukhansk,65.8167,87.9833,-41.19,79,63,5.97,RU,1611605565
Ngunguru,-35.6167,174.5,71.01,73,5,4.0,NZ,1611605837
Ninghai,29.2892,121.4247,57.0,94,95,1.01,CN,1611605837
Adrar,20.5022,-10.0711,72.01,17,100,8.43,MR,1611605837
Avera,33.194,-82.5271,75.2,60,75,10.36,US,1611605837
Tigil',57.8,158.6667,-12.48,90,100,2.59,RU,1611605837
Lucapa,-8.4192,20.7447,65.44,98,56,1.43,AO,1611605838
Mogadishu,2.0371,45.3438,77.07,76,13,23.2,SO,1611605838
Senno,59.5336,33.9167,35.01,93,100,1.01,RU,1611605838
Hjørring,57.4642,9.9823,28.99,100,75,5.53,DK,1611605838
Esim,4.8699,-2.2405,79.18,78,0,8.23,GH,1611605701
Salé,34.0389,-6.8166,57.99,100,40,3.44,MA,1611605838
Provideniya,64.3833,-173.3,1.4,71,0,15.66,RU,1611605838
San Policarpo,12.1791,125.5072,77.67,76,81,7.47,PH,1611605839
Fairbanks,64.8378,-147.7164,0.0,77,75,3.94,US,1611605766
Smidovich,48.6,133.8167,0.48,85,100,12.15,RU,1611605839
Ostrovnoy,68.0531,39.5131,17.42,96,100,13.02,RU,1611605839
Ambovombe,-25.1667,46.0833,76.75,85,6,14.88,MG,1611605839
Novo Aripuanã,-5.1206,-60.3797,86.13,70,49,3.2,BR,1611605839
Yerofey Pavlovich,53.9667,121.9667,-9.63,89,100,11.12,RU,1611605839
Beyneu,45.3167,55.2,31.08,93,0,17.22,KZ,1611605839
Mahon,39.8885,4.2658,50.0,93,75,20.71,ES,1611605840
Torbay,47.6666,-52.7314,28.0,86,90,13.8,CA,1611605840
Poum,-20.2333,164.0167,79.97,77,21,14.29,NC,1611605840
Maebaru-chūō,33.55,130.2,50.0,71,99,1.14,JP,1611605840
Vestmanna,62.1564,-7.1664,28.4,69,49,11.5,FO,1611605840
Sinnamary,5.3833,-52.95,80.04,76,86,9.1,GF,1611605840
Wittlich,49.9833,6.8833,33.01,86,1,4.61,DE,1611605662
Chuka,-0.3332,37.6459,59.72,91,100,4.03,KE,1611605840
Krasnosel'kup,65.7,82.4667,-39.66,79,100,8.84,RU,1611605841
Udachny,66.4167,112.4,-38.74,79,67,1.28,RU,1611605841
San-Pédro,4.7485,-6.6363,78.49,85,0,7.83,CI,1611605841
Hokitika,-42.7167,170.9667,61.0,75,0,1.48,NZ,1611605841
Pisco,-13.7,-76.2167,80.6,57,0,21.85,PE,1611605841
Kristianstad,56.0313,14.1524,34.0,100,75,3.74,SE,1611605841
Narasannapeta,18.4167,84.05,70.74,86,2,2.68,IN,1611605841
Dingle,10.9995,122.6711,72.99,93,84,8.12,PH,1611605841
Jijiga,9.35,42.8,57.79,36,2,9.33,ET,1611605841
Shimoda,34.6667,138.95,37.0,74,25,7.54,JP,1611605842
Severo-Kuril'sk,50.6789,156.125,21.29,92,97,21.47,RU,1611605842
Ardahan,41.1087,42.7022,11.08,81,97,3.53,TR,1611605841
Barentu,15.1139,37.5928,64.67,76,42,4.29,ER,1611605842
Bamiantong,44.9333,130.5333,15.71,94,100,1.54,CN,1611605842
Gubkinskiy,64.434,76.5026,-30.75,81,100,19.57,RU,1611605842
Glendive,47.1053,-104.7125,10.99,92,90,11.5,US,1611605842
Aswān,24.0934,32.907,59.22,32,0,9.33,EG,1611605843
Itarema,-2.9248,-39.9167,82.83,73,45,15.52,BR,1611605843
São Filipe,14.8961,-24.4956,73.78,68,26,5.3,CV,1611605843
Rio Grande,-32.035,-52.0986,86.0,58,20,13.8,BR,1611605557
Santa Vitória do Palmar,-33.5189,-53.3681,84.85,50,1,9.22,BR,1611605843
Bahía Honda,22.9036,-83.1592,78.84,69,100,8.16,CU,1611605749
Heréd,47.7064,19.6331,36.0,80,0,6.91,HU,1611605843
Manono,-7.3,27.4167,66.06,95,96,1.63,CD,1611605844
Kahului,20.8947,-156.47,78.8,65,40,9.22,US,1611605806
Estelle,29.8458,-90.1067,75.99,88,90,17.27,US,1611605691
Bilma,18.6853,12.9164,64.81,21,0,7.38,NE,1611605844
Yerbogachën,61.2767,108.0108,-36.4,83,79,2.73,RU,1611605844
Saint-Pierre,-21.3393,55.4781,77.0,78,0,2.3,RE,1611605844
Pevek,69.7008,170.3133,-23.91,87,100,6.6,RU,1611605844
Luganville,-15.5333,167.1667,79.48,82,100,3.71,VU,1611605844
Olafsvik,64.8945,-23.7142,27.3,92,100,33.91,IS,1611605845
Vila Velha,-20.3297,-40.2925,82.4,69,40,11.5,BR,1611605845
Ayan,56.45,138.1667,-19.64,77,0,5.23,RU,1611605845
Makakilo City,21.3469,-158.0858,78.8,65,20,12.66,US,1611605845
Coquimbo,-29.9533,-71.3436,69.8,68,20,12.66,CL,1611605596
Sibolga,1.7427,98.7792,76.12,82,98,3.67,ID,1611605845
Walvis Bay,-22.9575,14.5053,70.0,73,76,4.61,NA,1611605845
Yulara,-25.2406,130.9889,82.4,57,90,4.61,AU,1611605845
Turaif,31.6725,38.6637,44.6,45,0,9.22,SA,1611605846
Uíge,-7.6087,15.0613,67.23,92,62,1.59,AO,1611605846
Trat,12.5,102.5,73.09,94,22,1.1,TH,1611605846
Kupang,-10.1667,123.5833,78.78,81,100,8.19,ID,1611605846
Iqaluit,63.7506,-68.5145,-4.0,77,1,10.07,CA,1611605846
Bac Lieu,9.285,105.7244,75.9,72,91,10.51,VN,1611605846
Henderson,36.0397,-114.9819,42.01,93,75,9.22,US,1611605743
Forestville,38.8451,-76.875,37.99,52,90,5.75,US,1611605846
Bandarbeyla,9.4942,50.8122,73.62,71,54,19.8,SO,1611605847
Bodden Town,19.2833,-81.25,84.0,69,40,10.36,KY,1611605847
Djambala,-2.5447,14.7533,70.48,81,15,1.43,CG,1611605847
Rørvik,64.8621,11.2373,30.2,80,75,8.05,NO,1611605847
Lata,40.1629,-8.3327,59.0,95,100,1.01,PT,1611605847
Hofn,64.2539,-15.2082,23.0,54,0,12.66,IS,1611605848
Jeypore,18.85,82.5833,63.88,63,0,3.24,IN,1611605848
Asamankese,5.8601,-0.6635,80.6,83,0,10.36,GH,1611605848
Taoudenni,22.6783,-3.9836,70.12,19,90,4.14,ML,1611605848
Fort Saint James,54.4333,-124.25,19.08,94,97,2.01,CA,1611605848
Lazurne,46.084,32.5295,44.6,93,75,20.13,UA,1611605848
Lae,-6.7221,146.9847,76.75,81,97,6.78,PG,1611605848
Namangan,40.9983,71.6726,28.4,69,27,4.61,UZ,1611605848
Sabalgarh,26.25,77.4,48.29,51,0,0.72,IN,1611605849
Portland,45.5234,-122.6762,41.0,87,90,4.61,US,1611605420
Francistown,-21.17,27.5079,73.4,78,40,12.66,BW,1611605849
Rognan,67.0953,15.3878,26.01,71,7,6.42,NO,1611605849
Garissa,-0.4536,39.6401,80.94,62,60,12.1,KE,1611605849
Maragogi,-9.0122,-35.2225,79.99,75,99,9.69,BR,1611605849
Marquette,46.5333,-87.6335,19.99,65,81,8.01,US,1611605761
Nelson Bay,-32.7167,152.15,69.8,94,0,6.91,AU,1611605849
Stokmarknes,68.5646,14.9108,24.8,74,0,11.5,NO,1611605850
Erzin,36.9559,36.2,53.01,50,62,4.61,TR,1611605850
Constantine,36.365,6.6147,53.6,66,75,9.22,DZ,1611605850
Marabu,4.4148,114.0089,77.0,100,40,3.94,MY,1611605850
Nyurba,63.2842,118.3319,-48.33,75,1,2.51,RU,1611605850
Sakakah,29.9697,40.2064,51.8,28,0,3.44,SA,1611605850
Gondanglegi,-7.7479,112.0132,75.36,78,100,2.93,ID,1611605851
Oyotún,-6.8519,-79.3036,84.2,51,0,16.11,PE,1611605851
Lake Havasu City,34.4839,-114.3224,41.0,87,75,8.05,US,1611605851
Bilibino,68.0546,166.4372,-30.91,81,87,1.16,RU,1611605851
Itoman,26.1247,127.6694,62.6,94,40,3.44,JP,1611605606
Egvekinot,66.3167,-179.1667,-8.1,90,87,7.36,RU,1611605851
Rioblanco,3.5308,-75.6806,72.36,69,100,3.53,CO,1611605852
Omboué,-1.5746,9.2618,78.62,88,100,6.22,GA,1611605852
Kulunda,52.566,78.9385,-7.35,91,78,5.14,RU,1611605852
Ixtapa,20.7,-105.2,75.2,69,20,12.66,MX,1611605852
De-Kastri,51.4667,140.7833,-10.68,81,100,1.61,RU,1611605852
Kiryat Gat,31.61,34.7642,54.0,73,0,4.63,IL,1611605852
Karaton,-6.3424,106.1045,79.0,83,40,2.3,ID,1611605852
Guatire,10.4762,-66.5427,84.2,65,40,5.75,VE,1611605853
Belsand,26.45,85.4,52.97,56,0,4.36,IN,1611605853
Duku,11.2361,4.9073,79.43,16,100,6.93,NG,1611605853
Dwārka,22.2394,68.9678,67.3,38,0,12.64,IN,1611605853
Zhezkazgan,47.8043,67.7144,4.41,89,81,2.01,KZ,1611605853
Tahoua,14.8888,5.2692,77.0,11,0,2.3,NE,1611605853
Bethel,41.3712,-73.414,33.8,37,1,9.22,US,1611605853
Kingsport,36.5484,-82.5618,46.0,95,100,1.5,US,1611605590
Sur,22.5667,59.5289,66.22,63,0,5.12,OM,1611605586
Maun,-19.9833,23.4167,78.8,73,75,3.44,BW,1611605854
Andilamena,-17.0167,48.5833,68.11,89,98,2.17,MG,1611605854
Phonhong,18.5007,102.4166,67.12,65,9,2.06,LA,1611605854
San Cristobal,7.7669,-72.225,77.0,73,40,6.91,VE,1611605571
Puerto Escondido,15.85,-97.0667,84.2,74,20,8.05,MX,1611605854
Luanda,-8.8368,13.2343,80.6,78,40,9.22,AO,1611605854
Klaksvík,62.2266,-6.589,28.4,69,7,11.5,FO,1611605855
Tevaitoa,-16.7833,-151.5,81.09,74,11,14.74,PF,1611605855
Oriximiná,-1.7656,-55.8661,90.0,52,88,3.62,BR,1611605589
Novominskaya,46.3163,38.9586,37.15,78,100,10.83,RU,1611605855
Ahipara,-35.1667,173.1667,68.23,80,63,7.67,NZ,1611605855
Faya,18.3851,42.4509,57.2,82,0,3.44,SA,1611605855
Mahārāganj,27.1333,83.5667,51.46,54,0,5.06,IN,1611605855
Rocha,-34.4833,-54.3333,85.24,53,0,13.22,UY,1611605855
Birao,10.2849,22.7882,76.05,19,24,5.5,CF,1611605856
Cockburn Town,21.4612,-71.1419,78.8,73,40,16.11,TC,1611605856
Afonso Cláudio,-20.0742,-41.1239,75.0,85,80,5.17,BR,1611605856
Jinchang,38.4953,102.1739,21.94,80,0,7.31,CN,1611605856
Synevyr,48.4875,23.6258,33.01,95,100,1.01,UA,1611605856
La Ronge,55.1001,-105.2842,-18.4,69,56,2.3,CA,1611605856
São João da Barra,-21.6403,-41.0511,84.2,58,0,17.27,BR,1611605857
Smoky Lake,54.1169,-112.4686,-7.6,71,100,8.05,CA,1611605857
Beloha,-25.1667,45.05,75.72,81,0,12.17,MG,1611605857
Siyabuswa,-25.1132,29.0445,70.65,78,100,7.07,ZA,1611605857
Mountain Home,43.133,-115.6912,33.8,60,20,3.44,US,1611605857
Villamontes,-21.25,-63.5,85.19,69,100,2.28,BO,1611605857
Agadez,19.75,10.25,58.96,26,0,5.06,NE,1611605858
Voznesen'ye,61.0106,35.4781,35.1,95,100,6.31,RU,1611605858
Grand Gaube,-20.0064,57.6608,75.99,84,9,3.0,MU,1611605858
Paidha,2.4167,30.9855,69.78,58,81,5.26,UG,1611605858
Mingshui,36.7167,117.5,37.0,88,100,0.36,CN,1611605858
Kargil,34.5667,76.1,-9.58,75,37,1.5,IN,1611605858
Saint Anthony,45.0205,-93.218,21.2,35,40,9.22,US,1611605858
Luwuk,-0.9516,122.7875,75.15,82,100,6.67,ID,1611605858
Clyde River,70.4692,-68.5914,8.6,92,75,29.93,CA,1611605859
Nkhotakota,-12.9274,34.2961,74.19,77,100,3.24,MW,1611605859
Okhotsk,59.3833,143.3,-24.86,75,0,16.75,RU,1611605859
Pudozh,61.8099,36.5345,34.18,98,100,5.86,RU,1611605859
Havre-St-Pierre,50.2334,-63.5986,37.4,56,90,17.27,CA,1611605859
Hoi An,15.8794,108.335,68.0,88,20,4.97,VN,1611605859
Lompoc,34.6391,-120.4579,50.0,66,75,21.85,US,1611605859
Ambilobe,-13.2,49.05,74.7,90,93,1.43,MG,1611605859
Fukuechō,32.6881,128.8419,56.89,83,100,21.88,JP,1611605859
Mookane,-23.688,26.6595,70.83,84,100,18.52,BW,1611605860
Kawalu,-7.3817,108.2082,72.81,88,94,1.43,ID,1611605724
Ivangorod,59.3716,28.2162,31.51,98,100,6.76,RU,1611605860
Solana Beach,32.9912,-117.2711,54.0,58,90,13.8,US,1611605860
Kandrian,-6.2167,149.55,77.86,80,100,7.38,PG,1611605860
Najrān,17.4924,44.1277,59.0,33,0,2.08,SA,1611605860
Dicabisagan,17.0818,122.4157,76.84,87,100,10.02,PH,1611605860
Chapais,49.7834,-74.8492,10.4,72,90,4.61,CA,1611605861
Quebo,11.3333,-14.9333,72.72,73,0,5.73,GW,1611605861
Danjiangkou,32.5428,111.5086,41.09,68,0,3.89,CN,1611605861
Bariloche,-41.1456,-71.3082,70.0,39,40,32.21,AR,1611605861
Nhamundá,-2.1861,-56.7131,88.61,59,99,1.95,BR,1611605861
Marsá Maţrūḩ,31.3525,27.2453,59.0,38,0,9.22,EG,1611605861
Havelock,34.8791,-76.9013,48.99,100,90,4.61,US,1611605861
Saint-Joseph,-21.3667,55.6167,77.0,78,0,2.3,RE,1611605861
Mogoytuy,51.2833,114.9167,-9.0,88,100,5.82,RU,1611605862
Bethanien,-26.502,17.1583,84.58,26,100,14.85,NA,1611605862
Tyukhtet,56.5389,89.3011,-28.1,85,100,1.45,RU,1611605862
Port Alberni,49.2413,-124.8028,35.01,90,100,1.83,CA,1611605710
Middelburg,-25.7751,29.4648,62.02,82,100,9.51,ZA,1611605862
Port Lincoln,-34.7333,135.8667,62.55,72,98,13.33,AU,1611605862
Merritt,50.1123,-120.7942,32.0,74,90,1.66,CA,1611605862
Teguise,29.0605,-13.564,66.2,68,75,13.8,ES,1611605863
Waterloo,43.4668,-80.5164,32.0,80,1,5.75,CA,1611605863
Hualmay,-11.0964,-77.6139,77.11,64,75,10.78,PE,1611605863
Mount Isa,-20.7333,139.5,80.6,69,90,11.5,AU,1611605863
Büren,51.55,8.5667,33.01,80,0,11.5,DE,1611605767
Zapolyarnyy,69.4154,30.8136,15.8,100,75,1.14,RU,1611605863
Purpe,64.4803,76.6897,-31.09,81,100,19.28,RU,1611605863
Puri,19.8,85.85,75.2,94,75,4.61,IN,1611605864
Carberry,49.8689,-99.3602,-9.4,70,90,11.5,CA,1611605864
Srednekolymsk,67.45,153.6833,-39.98,80,26,2.73,RU,1611605864
Sprimont,50.508,5.6599,35.01,86,20,13.8,BE,1611605864
San Jose de Guanipa,8.8872,-64.1651,88.83,36,100,11.52,VE,1611605864
Khasan,42.4308,130.6434,31.35,98,100,2.66,RU,1611605864
Barcelona,41.3888,2.159,52.0,66,75,12.66,ES,1611605855
Port Moresby,-9.4431,147.1797,73.4,94,40,5.75,PG,1611605826
Ranfurly,-45.1333,170.1,66.0,60,81,9.86,NZ,1611605864
Tautira,-17.7333,-149.15,84.2,70,75,4.61,PF,1611605865
Barra,-11.0894,-43.1417,89.47,42,13,5.48,BR,1611605865
Porto Recanati,43.4365,13.6613,41.0,38,61,8.01,IT,1611605865
Hamilton,39.1834,-84.5333,33.01,93,90,14.97,US,1611605865
Sharjah city,25.3573,55.4033,69.01,88,0,4.61,AE,1611605865
Long Beach,33.767,-118.1892,57.0,47,1,20.71,US,1611605673
Okha,53.5739,142.9478,-20.76,86,6,11.95,RU,1611605865
Vao,-22.6667,167.4833,76.64,73,96,24.2,NC,1611605865
Kushiro,42.975,144.3747,10.69,92,2,9.15,JP,1611605607
Halifax,44.6453,-63.5724,32.0,80,75,17.27,CA,1611605621
Huilong,31.8111,121.655,52.0,98,100,5.17,CN,1611605866
Sabzawār,36.2126,57.6819,34.27,71,0,5.5,IR,1611605866
Celestún,20.8667,-90.4,81.95,64,100,3.42,MX,1611605866
Karratha,-20.7377,116.8463,82.65,38,100,16.33,AU,1611605866
Dunmore Town,25.5,-76.65,73.62,80,90,20.78,BS,1611605866
Santa Maria da Vitória,-13.3947,-44.1886,87.08,47,46,2.48,BR,1611605702
Ossora,59.2353,163.0719,9.3,94,100,12.93,RU,1611605867
Petropavlovsk-Kamchatskiy,53.0452,158.6483,3.2,55,98,8.95,RU,1611605867
Ola,59.5833,151.2833,-11.02,81,93,13.09,RU,1611605867
Maltahöhe,-24.8333,16.9833,82.72,28,99,19.84,NA,1611605867
Jiaojiang,28.6803,121.4428,57.0,92,88,1.74,CN,1611605868
Cape Coast,5.1053,-1.2466,79.5,80,0,12.35,GH,1611605868
Vostok,46.4856,135.8833,8.1,94,100,5.35,RU,1611605868
Dengzhou,37.8086,120.7508,38.34,93,100,10.2,CN,1611605868
Lokosovo,61.1333,74.8167,-28.14,84,100,12.57,RU,1611605868
Alta,69.9689,23.2717,5.0,66,75,6.91,NO,1611605868
Barra Patuca,15.8,-84.2833,82.49,66,98,12.17,HN,1611605869
Yorkton,51.2167,-102.4677,-18.4,76,1,2.3,CA,1611605869
Khandyga,62.6667,135.6,-54.13,63,0,0.96,RU,1611605869
Byron Bay,-28.65,153.6167,64.4,100,45,3.44,AU,1611605869
Morgan City,29.6994,-91.2068,75.99,94,90,14.97,US,1611605869
Lianzhou,24.7811,112.3825,51.84,68,90,5.59,CN,1611605869
Lázaro Cárdenas,17.9583,-102.2,81.77,63,24,10.2,MX,1611605869
Shumikha,55.2261,63.2961,20.32,96,5,9.01,RU,1611605869
Lesnoy,57.6198,63.0784,26.91,97,100,10.38,RU,1611605870
Cuiabá,-15.5961,-56.0967,82.4,65,40,8.05,BR,1611605711
Cabra,37.4725,-4.4421,59.0,82,90,8.05,ES,1611605870
Brandfort,-28.7001,26.4597,68.0,73,89,8.05,ZA,1611605870
Samarai,-10.6167,150.6667,79.88,78,100,5.77,PG,1611605593
Tupik,54.4253,119.9327,-13.04,87,100,7.58,RU,1611605870
Aksu,41.1231,80.2644,17.74,89,5,2.71,CN,1611605870
Broome,42.2506,-75.833,28.99,54,1,1.66,US,1611605870
Miranda,3.2499,-76.2281,84.2,54,75,6.91,CO,1611605871
Yumen,40.2833,97.2,16.72,82,0,6.22,CN,1611605871
Noshiro,40.2039,140.0242,30.36,94,47,6.69,JP,1611605871
Salym,60.0625,71.4789,-15.43,89,100,10.36,RU,1611605871
Benguela,-12.5763,13.4055,77.27,76,31,5.48,AO,1611605871
Buchanan,5.8808,-10.0467,78.8,94,40,6.67,LR,1611605871
Beringovskiy,63.05,179.3167,-3.01,91,100,16.33,RU,1611605871
Pokhara,28.2333,83.9833,51.76,43,0,4.12,NP,1611605871
Sulina,45.1559,29.6536,41.76,67,42,17.36,RO,1611605872
Bolotnoye,55.6717,84.3981,-37.7,83,2,3.09,RU,1611605872
Owando,-0.4819,15.8999,77.52,71,97,2.37,CG,1611605872
Abu Dhabi,24.4667,54.3667,66.2,88,0,4.61,AE,1611605744
Porbandar,21.6422,69.6093,64.02,34,9,12.01,IN,1611605643
Balkhash,46.844,74.9804,-1.55,85,0,2.42,KZ,1611605872
Grão Mogol,-16.5594,-42.8897,76.93,73,72,2.77,BR,1611605872
Hambantota,6.1241,81.1185,72.97,81,89,15.64,LK,1611605679
Deputatsky,69.3,139.9,-41.12,82,78,0.74,RU,1611605627
Mossamedes,-15.1961,12.1522,76.64,74,0,6.71,AO,1611605873
The Valley,18.217,-63.0578,82.4,69,20,12.66,AI,1611605873
Tiznit Province,29.5833,-9.5,56.62,74,0,3.47,MA,1611605873
Poyarkovo,49.6,128.6833,5.9,94,100,12.82,RU,1611605873
Samoded,63.6083,40.5111,35.56,96,100,7.54,RU,1611605873
Arlit,18.7369,7.3853,66.52,18,0,7.76,NE,1611605873
Dhidhdhoo,6.8833,73.1,81.27,69,81,7.61,MV,1611605874
Kindu,-2.95,25.95,70.88,94,100,1.32,CD,1611605770
Hervey Bay,-25.2986,152.8535,69.01,87,8,1.01,AU,1611605874
Ukiah,39.1502,-123.2078,48.2,46,20,10.36,US,1611605874
Jalu,29.0331,21.5482,55.33,38,44,4.21,LY,1611605874
Aksarka,66.5606,67.7975,-17.93,88,100,8.7,RU,1611605874
Bintulu,3.1667,113.0333,78.01,94,40,9.22,MY,1611605874
Baykit,61.67,96.37,-38.99,76,23,1.14,RU,1611605875
Ucluelet,48.9329,-125.5528,41.0,87,75,2.3,CA,1611605710
Antalaha,-14.9003,50.2788,78.67,81,97,1.36,MG,1611605875
Kalmunai,7.4167,81.8167,73.08,76,88,7.52,LK,1611605875
