City,Lat,Lng,Max Temp,Humidity,Cloudiness,Wind Speed,Country,Date
Grindavik,63.8424,-22.4338,-2.0,74,20,11.32,IS,1611505202
Puerto Ayora,-0.7393,-90.3518,28.0,74,75,6.17,EC,1611505203
Gimli,50.6336,-96.9907,-25.0,70,10,3.09,CA,1611504908
Chara,56.9064,118.2631,-30.89,74,5,0.38,RU,1611505203
Pisco,-13.7,-76.2167,25.0,65,0,4.12,PE,1611505203
Atuona,-9.8,-139.0333,25.36,77,5,6.74,PF,1611505203
Kruisfontein,-34.0033,24.7314,20.0,75,96,1.34,ZA,1611505031
Hermanus,-34.4187,19.2345,21.67,57,8,4.47,ZA,1611505203
Vaini,-21.2,-175.2,22.0,100,90,5.19,TO,1611505063
Mataura,-46.1927,168.8643,13.89,89,74,4.92,NZ,1611505204
Qaanaaq,77.484,-69.3632,-12.92,78,0,1.51,GL,1611505123
Mar del Plata,-38.0023,-57.5575,32.0,40,20,5.14,AR,1611505015
San Rafael,-34.6177,-68.3301,34.83,19,0,6.39,AR,1611505204
Chokurdakh,70.6333,147.9167,-35.73,83,100,5.1,RU,1611505204
Setermoen,68.861,18.3486,-20.0,84,20,1.03,NO,1611505204
Punta Arenas,-53.15,-70.9167,17.0,36,0,6.69,CL,1611505016
Laas,46.6166,10.7002,4.0,65,0,1.03,IT,1611505205
Lagoa,39.05,-27.9833,16.52,90,98,10.58,PT,1611505205
Karasjok,69.4719,25.5112,-14.0,72,75,3.09,NO,1611505205
Avarua,-21.2078,-159.775,27.0,78,20,5.14,CK,1611504907
Salalah,17.0151,54.0924,23.0,56,0,1.65,OM,1611505205
Hilo,19.7297,-155.09,19.0,77,40,3.09,US,1611505021
Khatanga,71.9667,102.5,-28.6,87,100,4.47,RU,1611505063
Muros,42.7762,-9.0603,13.33,84,99,1.34,ES,1611505206
Rikitea,-23.1203,-134.9692,26.25,65,67,3.81,PF,1611505059
Nikolskoye,59.7035,30.7861,2.0,93,90,4.0,RU,1611505206
Lagunillas,10.1301,-71.2595,30.41,56,21,2.61,VE,1611505206
Santiago de las Vegas,22.97,-82.3869,25.0,69,75,3.6,CU,1611505206
Bluff,-46.6,168.3333,13.89,89,71,4.47,NZ,1611505206
Albany,42.6001,-73.9662,-7.78,37,0,4.02,US,1611505200
Butaritari,3.0707,172.7902,26.0,80,25,4.77,KI,1611505207
Ushuaia,-54.8,-68.3,18.0,34,40,8.75,AR,1611505207
San Policarpo,12.1791,125.5072,26.23,83,18,3.91,PH,1611505207
Derzhavīnsk,51.1,66.3167,-17.41,92,100,4.82,KZ,1611505207
Port Alfred,-33.5906,26.891,18.33,92,84,5.95,ZA,1611505029
Xinzhi,36.4989,111.7047,2.64,85,100,0.29,CN,1611505207
Zarubino,42.63,131.0922,-2.68,94,0,2.36,RU,1611505208
Busselton,-33.65,115.3333,12.22,85,0,2.91,AU,1611505208
Ribeira Grande,38.5167,-28.7,17.0,94,75,6.69,PT,1611505114
Eureka,40.8021,-124.1637,6.67,93,100,3.36,US,1611504915
Tautira,-17.7333,-149.15,24.0,83,40,1.03,PF,1611505208
Whitehorse,60.7161,-135.0538,-12.78,92,75,1.54,CA,1611505208
Erzin,36.9559,36.2,9.0,70,0,1.03,TR,1611505208
Cape Town,-33.9258,18.4232,22.78,49,0,12.35,ZA,1611504792
Norman Wells,65.282,-126.8329,-25.0,84,90,1.03,CA,1611505065
Saint Paul Harbor,57.79,-152.4072,2.0,55,1,13.89,US,1611505073
Bereket,39.2446,55.5154,-0.18,89,0,3.94,TM,1611505209
Dikson,73.5069,80.5464,-25.29,90,100,4.68,RU,1611505209
Barra Patuca,15.8,-84.2833,27.22,75,96,5.43,HN,1611505209
Nouadhibou,20.931,-17.0347,31.0,29,100,2.06,MR,1611505209
Longyearbyen,78.2186,15.6401,-9.0,62,75,7.2,SJ,1611504930
Cayenne,4.9333,-52.3333,29.0,74,75,7.2,GF,1611505210
Borogontsy,62.6683,131.1683,-50.3,49,92,0.46,RU,1611505210
Gizo Government Station,-8.103,156.8419,27.44,72,100,3.13,SB,1611505210
Barrow,71.2906,-156.7887,-19.0,78,1,9.26,US,1611505092
Arraial do Cabo,-22.9661,-42.0278,30.0,69,75,9.26,BR,1611505210
Alto Araguaia,-17.3147,-53.2153,29.29,53,93,2.89,BR,1611505210
Mayo,38.8876,-76.5119,0.56,55,1,4.63,US,1611504940
Vrangel',42.7297,133.0839,-1.52,88,0,3.93,RU,1611505211
Port Elizabeth,-33.918,25.5701,20.0,77,20,2.06,ZA,1611504985
San Quintín,30.4833,-115.95,12.03,72,88,4.58,MX,1611505211
Buenaventura,3.8801,-77.0312,22.78,62,53,1.71,CO,1611504970
Yulara,-25.2406,130.9889,28.0,65,90,3.6,AU,1611505211
Zhob,31.3411,69.4481,6.61,47,0,0.43,PK,1611505211
Bathsheba,13.2167,-59.5167,29.0,65,40,8.23,BB,1611505115
Sečovce,48.7007,21.661,3.89,87,40,1.03,SK,1611505212
Plettenberg Bay,-34.0527,23.3716,19.02,74,74,6.48,ZA,1611505212
Tottori-shi,35.5,134.2333,7.74,75,99,2.99,JP,1611505212
Serabu,7.7958,-12.0536,35.97,16,0,1.38,SL,1611505212
Coquimbo,-29.9533,-71.3436,22.0,64,75,4.63,CL,1611504952
Cidreira,-30.1811,-50.2056,26.89,68,7,4.06,BR,1611505212
Pevek,69.7008,170.3133,-28.38,88,86,2.9,RU,1611505212
Cabo San Lucas,22.8909,-109.9124,16.0,72,1,6.69,MX,1611505153
Ponta do Sol,32.6667,-17.1,18.89,68,65,1.79,PT,1611505212
Olafsvik,64.8945,-23.7142,-1.56,91,85,13.14,IS,1611505213
Nazca,-14.8333,-74.95,28.94,38,28,2.84,PE,1611505213
Kapaa,22.0752,-159.319,23.0,88,40,8.75,US,1611505101
São Félix do Xingu,-6.6447,-51.995,27.96,86,18,2.05,BR,1611505213
Tasiilaq,65.6145,-37.6368,-12.0,56,0,1.03,GL,1611505071
Ilulissat,69.2167,-51.1,-7.0,42,25,2.06,GL,1611505213
New Norfolk,-42.7826,147.0587,18.33,74,75,0.45,AU,1611505001
São João da Barra,-21.6403,-41.0511,31.0,48,40,6.17,BR,1611505214
Vilhena,-12.7406,-60.1458,28.0,65,75,1.03,BR,1611505027
Fomboni,-12.28,43.7425,28.88,64,74,2.0,KM,1611505214
Saint-Philippe,-21.3585,55.7679,27.0,74,20,2.57,RE,1611505062
Zima,53.9202,102.0442,-18.07,89,100,0.38,RU,1611505214
Kudahuvadhoo,2.6708,72.8944,28.21,74,78,5.91,MV,1611505214
Shache,38.4167,77.2406,-4.18,69,0,1.27,CN,1611505214
North Bend,43.4065,-124.2243,5.0,93,90,4.12,US,1611505215
Pierre,44.3683,-100.351,-8.89,85,90,1.54,US,1611505106
Petropavlovsk-Kamchatskiy,53.0452,158.6483,-17.0,78,52,4.0,RU,1611505215
Linxia Chengguanzhen,35.6003,103.2064,-5.15,92,100,1.48,CN,1611505215
Bambanglipuro,-7.95,110.2833,25.74,81,100,1.91,ID,1611505215
Nānākuli,21.3906,-158.1547,23.0,78,20,2.06,US,1611505215
Sisimiut,66.9395,-53.6735,-8.33,87,100,3.59,GL,1611505215
Tiksi,71.6872,128.8694,-41.85,79,35,3.53,RU,1611505216
Hobart,-42.8794,147.3294,20.0,49,87,3.09,AU,1611505216
Otofuke,42.9917,143.2003,-9.88,88,0,1.16,JP,1611505216
Nokaneng,-19.6667,22.2667,32.09,32,0,1.35,BW,1611505216
Souillac,-20.5167,57.5167,27.0,78,40,1.54,MU,1611505216
Caniço,32.6333,-16.85,19.0,72,40,3.09,PT,1611505216
Elumalai,9.8667,77.7,24.0,78,83,1.03,IN,1611505216
Bandarbeyla,9.4942,50.8122,23.26,71,25,8.72,SO,1611505216
Kaitangata,-46.2817,169.8464,15.0,81,62,3.13,NZ,1611505217
Jamestown,42.097,-79.2353,-4.0,58,40,1.32,US,1611505217
Troitsk,54.0979,61.5773,-11.1,95,100,4.79,RU,1611505217
Manika,11.388,122.2793,23.76,86,13,1.09,PH,1611505217
Leningradskiy,69.3833,178.4167,-27.29,82,0,1.01,RU,1611505142
Clyde River,70.4692,-68.5914,-14.0,92,1,9.77,CA,1611505217
Coahuayana Viejo,18.7333,-103.6833,23.0,56,40,0.46,MX,1611505217
Ṭikāpur,28.5,81.1333,13.73,58,0,1.47,NP,1611505218
Bredasdorp,-34.5322,20.0403,22.0,46,82,7.2,ZA,1611505060
Mount Gambier,-37.8333,140.7667,22.0,49,51,2.06,AU,1611505218
Saint Anthony,45.0205,-93.218,-7.0,79,75,2.06,US,1611505218
Fayetteville,35.0527,-78.8784,5.56,33,1,3.09,US,1611505218
Katsuura,35.1333,140.3,7.0,87,75,6.69,JP,1611505218
Quelimane,-17.8786,36.8883,32.0,74,75,3.6,MZ,1611505087
Kununurra,-15.7667,128.7333,25.0,100,100,1.54,AU,1611505132
Esim,4.8699,-2.2405,27.96,69,52,4.76,GH,1611505219
Lompoc,34.6391,-120.4579,6.11,93,1,1.54,US,1611505219
Goderich,43.7501,-81.7165,-5.0,68,100,4.12,CA,1611505219
Dalvik,65.9702,-18.5286,-3.0,86,90,4.63,IS,1611505219
Bilecik Province,40.0,30.1667,12.0,76,40,1.54,TR,1611505219
Atbasar,51.8,68.3333,-23.12,90,90,3.29,KZ,1611505219
Port Keats,-14.25,129.55,26.75,86,99,7.0,AU,1611505219
Springbok,-29.6643,17.8865,26.33,28,0,5.49,ZA,1611505220
Yellowknife,62.456,-114.3525,-26.67,76,75,3.09,CA,1611505220
Saint George,37.1041,-113.5841,1.0,86,1,2.06,US,1611505159
Khani,41.9563,42.9566,10.0,25,0,5.66,GE,1611505220
Carutapera,-1.195,-46.02,27.19,85,97,3.48,BR,1611505220
Oksovskiy,62.6062,39.8984,1.65,96,100,4.21,RU,1611505220
Quatre Cocos,-20.2078,57.7625,27.0,78,40,1.54,MU,1611505220
Hithadhoo,-0.6,73.0833,28.16,68,48,1.21,MV,1611505220
Carnarvon,-24.8667,113.6333,24.0,78,75,9.26,AU,1611505221
Bengkulu,-3.8004,102.2655,25.79,80,99,2.11,ID,1611505221
Calvinia,-31.4707,19.776,29.31,15,0,9.02,ZA,1611505221
Indramayu,-6.3264,108.32,25.59,80,100,3.03,ID,1611505221
Vao,-22.6667,167.4833,24.64,76,90,10.1,NC,1611505221
Mpraeso,6.5932,-0.7346,34.2,14,0,2.77,GH,1611505222
Kupino,54.3663,77.2981,-40.25,81,10,2.13,RU,1611505222
Roald,62.5833,6.1333,3.0,60,0,4.12,NO,1611505222
Vila Franca do Campo,37.7167,-25.4333,18.89,94,75,5.66,PT,1611505222
Rodino,52.5,80.25,-38.2,82,3,2.46,RU,1611505222
Pangnirtung,66.1451,-65.7125,-9.23,78,70,1.42,CA,1611505222
Bambous Virieux,-20.3428,57.7575,27.0,78,40,1.54,MU,1611505063
Itarema,-2.9248,-39.9167,31.0,56,98,7.11,BR,1611505222
Honningsvåg,70.9821,25.9704,-6.0,68,75,5.14,NO,1611505222
Takoradze,4.8845,-1.7554,28.34,68,32,5.24,GH,1611505111
San Luis,-33.295,-66.3356,33.28,26,6,4.53,AR,1611505223
Sitka,57.0531,-135.33,1.0,93,20,3.6,US,1611505072
Sūsangerd,31.5608,48.1831,12.0,40,0,1.03,IR,1611505223
Kuminskiy,58.6667,66.5667,-27.28,88,100,3.78,RU,1611505223
Sioux Lookout,50.1001,-91.917,-12.0,79,90,6.17,CA,1611505223
Ostrovnoy,68.0531,39.5131,-12.72,94,100,5.56,RU,1611505223
Visnes,59.3556,5.2242,0.0,86,40,4.12,NO,1611505223
Fort Nelson,58.8053,-122.7002,-17.0,60,90,1.17,CA,1611505072
Mazagão,-0.115,-51.2894,32.0,66,75,5.66,BR,1611505224
Mae Sai,20.4335,99.8762,16.0,88,0,1.03,TH,1611505224
Dingle,10.9995,122.6711,24.15,90,30,2.51,PH,1611505224
Saint-Augustin,51.226,-58.6502,1.79,85,100,7.02,CA,1611505224
Bethel,41.3712,-73.414,-3.89,33,1,5.66,US,1611505025
Nanortalik,60.1432,-45.2371,-4.57,90,0,4.04,GL,1611505140
Faya,18.3851,42.4509,18.0,67,0,2.06,SA,1611505099
Mitú,1.1983,-70.1733,30.56,59,74,0.69,CO,1611505201
Iranshahr,27.2025,60.6848,12.0,9,0,2.06,IR,1611505225
Forsytheganj,52.6333,29.7333,3.98,95,100,6.0,BY,1611505225
Balagunan,7.4922,125.5211,25.0,94,75,2.06,PH,1611505225
Port Macquarie,-31.4333,152.9167,18.33,98,4,5.5,AU,1611505225
Kurchum,48.5722,83.6542,-15.46,93,100,2.52,KZ,1611505225
Rocha,-34.4833,-54.3333,31.88,37,0,4.91,UY,1611505226
Ancud,-41.8697,-73.8203,18.0,48,0,5.14,CL,1611505150
Caravelas,-17.7125,-39.2481,29.19,57,79,3.56,BR,1611505226
Lebu,-37.6167,-73.65,17.06,66,9,6.79,CL,1611505226
Sinnamary,5.3833,-52.95,26.64,77,98,6.16,GF,1611505226
Hong Kong,22.2855,114.1577,17.78,86,73,1.34,HK,1611504945
Abnūb,27.2696,31.1511,15.0,55,0,5.14,EG,1611505227
Chicama,-7.8447,-79.1469,21.0,88,20,3.6,PE,1611505227
General Roca,-39.0333,-67.5833,29.0,42,0,1.03,AR,1611505227
Vieux Fort,13.7167,-60.95,29.0,61,40,7.2,LC,1611505227
Puerto Madero,14.7208,-92.4215,29.0,65,20,3.09,MX,1611505227
Tuktoyaktuk,69.4541,-133.0374,-23.0,77,90,2.06,CA,1611505121
Kushiro,42.975,144.3747,-5.76,91,0,1.6,JP,1611505227
Presidente Médici,-11.1753,-61.9014,25.95,84,100,1.78,BR,1611505227
Henties Bay,-22.116,14.2845,21.3,84,99,4.24,NA,1611505228
Kargopol',61.5071,38.9456,1.46,98,100,4.09,RU,1611505228
Alice Springs,-23.7,133.8833,27.0,61,90,7.2,AU,1611505103
Saint-Louis,16.3333,-15.0,34.0,13,0,2.06,SN,1611505228
Marzuq,14.4,46.4667,16.76,29,58,2.04,YE,1611505228
Flinders,-34.5833,150.8552,23.33,79,100,0.45,AU,1611505228
Sampit,-2.5333,112.95,23.85,84,100,0.66,ID,1611505228
São Filipe,14.8961,-24.4956,24.21,57,0,3.42,CV,1611505144
Atibaia,-23.131,-46.589,29.0,51,75,3.09,BR,1611505145
Clarence Town,-32.5833,151.7833,21.67,83,27,2.57,AU,1611505229
Mithi,24.7318,69.7981,17.17,21,0,3.99,PK,1611505229
Hamilton,39.1834,-84.5333,-1.0,69,90,1.54,US,1611505229
Krasnaya Gorka,55.1962,56.6673,-3.62,98,100,2.06,RU,1611505229
Swellendam,-34.0226,20.4417,20.0,52,37,7.72,ZA,1611505229
Castro,-24.7911,-50.0119,21.87,85,100,1.8,BR,1611505122
Kavieng,-2.5744,150.7967,27.75,76,42,3.32,PG,1611505229
Ketchikan,55.3422,-131.6461,1.0,100,90,2.06,US,1611505230
Espoo,60.25,24.6667,2.22,100,90,3.6,FI,1611505230
Tooele,40.5308,-112.2983,-2.0,100,90,1.1,US,1611504971
Kumul,42.8,93.45,-5.95,79,84,1.39,CN,1611505230
Yuzhno-Kurilsk,44.0306,145.8556,-3.43,90,3,0.98,RU,1611505230
Namatanai,-3.6667,152.4333,26.64,77,64,1.45,PG,1611505230
Kayes,14.0,-11.0,35.37,8,0,3.76,ML,1611505230
Baghlan,36.1307,68.7083,0.18,85,34,0.23,AF,1611505231
Mindelo,16.8901,-24.9804,24.0,64,20,10.29,CV,1611505231
Saskylakh,71.9167,114.0833,-38.62,79,1,2.5,RU,1611505122
Los Llanos de Aridane,28.6585,-17.9182,21.0,73,75,2.06,ES,1611505231
Te Anau,-45.4167,167.7167,12.68,86,99,2.7,NZ,1611505062
Malakal,9.5334,31.6605,32.6,20,95,2.33,SS,1611505231
Adrar,20.5022,-10.0711,28.24,11,100,5.75,MR,1611505231
Bairiki Village,1.3292,172.9752,25.0,83,20,2.06,KI,1611505231
Selikhino,50.3672,137.4996,-24.35,88,8,1.8,RU,1611505232
Chui,-33.6971,-53.4616,27.98,57,42,4.37,UY,1611505232
Zliten,32.4674,14.5687,19.2,39,67,4.06,LY,1611505232
Galesong,-5.3166,119.3661,24.0,100,20,2.06,ID,1611505232
Saldanha,-33.0117,17.9442,24.0,41,0,10.29,ZA,1611505103
Yerbogachën,61.2767,108.0108,-38.44,81,78,0.83,RU,1611505232
Youkounkoun,12.5333,-13.1333,37.77,8,2,3.1,GN,1611505232
East London,-33.0153,27.9116,19.0,82,90,3.09,ZA,1611505101
Airai,-8.9266,125.4092,16.43,100,100,0.99,TL,1611505075
Amuntai,-2.4177,115.2494,23.4,89,100,0.43,ID,1611505233
Taltal,-25.4,-70.4833,22.55,55,7,3.16,CL,1611505233
Petra,30.3222,35.4793,8.56,50,0,0.75,JO,1611504998
Puerto Escondido,15.85,-97.0667,28.0,83,75,1.03,MX,1611505233
Semey,50.4111,80.2275,-32.83,84,6,2.31,KZ,1611505233
Nantucket,41.2835,-70.0995,-3.0,43,1,9.77,US,1611505234
Labuan,5.2767,115.2417,26.0,89,20,1.03,MY,1611505234
Mahébourg,-20.4081,57.7,27.0,78,40,1.54,MU,1611504969
Bol,13.4586,14.7147,27.42,35,89,3.84,TD,1611505234
Lahaina,20.8783,-156.6825,21.11,82,1,2.06,US,1611505234
Safaga,26.7292,33.9365,21.0,37,0,6.69,EG,1611505234
Guerrero Negro,27.9769,-114.0611,14.88,57,6,5.68,MX,1611505070
Bushehr,28.9684,50.8385,16.0,72,0,6.17,IR,1611505234
Bongor,10.2806,15.3722,34.71,10,29,3.04,TD,1611505234
Leshukonskoye,64.8989,45.7622,-3.72,98,100,3.19,RU,1611505235
Myskhako,44.6714,37.7433,9.0,66,20,7.0,RU,1611505235
Kirkwall,58.9848,-2.9587,2.0,93,75,6.17,GB,1611505235
Trairi,-3.2778,-39.2689,30.61,57,100,6.27,BR,1611505235
Avera,33.194,-82.5271,11.11,46,75,3.09,US,1611505235
Pangai,-19.8,-174.35,24.12,88,100,10.16,TO,1611505235
Sept-Îles,50.2001,-66.3821,2.78,64,100,7.72,CA,1611505202
Portland,45.5234,-122.6762,4.44,88,100,0.89,US,1611505121
Vestmannaeyjar,63.4427,-20.2734,2.0,51,20,5.66,IS,1611505236
Alofi,-19.0595,-169.9187,24.0,94,100,0.51,NU,1611505236
Makokou,0.5738,12.8642,29.25,54,84,0.94,GA,1611505236
George Town,5.4112,100.3354,28.89,89,40,4.12,MY,1611505057
Manokwari,-0.8667,134.0833,26.36,78,99,3.48,ID,1611505107
Comodoro Rivadavia,-45.8667,-67.5,25.0,44,20,6.69,AR,1611504978
Verkh-Usugli,52.7,115.1667,-16.22,93,100,2.01,RU,1611505236
Romny,50.751,33.4747,3.7,86,100,7.75,UA,1611505237
San Miguel de Tucumán,-26.8241,-65.2226,31.0,58,90,1.74,AR,1611505227
Nioro,13.35,-15.75,37.07,7,0,4.06,GM,1611505094
Charters Towers,-20.1,146.2667,21.49,85,17,2.51,AU,1611505237
Srednekolymsk,67.45,153.6833,-34.01,84,100,3.67,RU,1611505079
Cortez,37.3489,-108.5859,-0.56,100,90,2.06,US,1611505238
Nizhniy Kuranakh,58.8353,125.4869,-38.92,76,0,0.87,RU,1611505238
Lata,40.1629,-8.3327,15.0,90,100,2.24,PT,1611505238
Pokhara,28.2333,83.9833,13.2,66,76,0.63,NP,1611505041
Menongue,-14.6585,17.691,26.44,49,39,1.68,AO,1611505238
Upernavik,72.7868,-56.1549,-8.73,92,0,6.48,GL,1611505238
Diamantino,-14.4086,-56.4461,31.23,58,97,0.66,BR,1611505070
Socastee,33.6835,-78.9984,9.44,65,1,3.6,US,1611505239
Laramie,41.3114,-105.5911,-3.33,79,1,5.66,US,1611504969
Yatou,37.15,122.3833,4.31,90,100,2.0,CN,1611505239
Pacific Grove,36.6177,-121.9166,10.56,81,90,1.54,US,1611505239
Fairbanks,64.8378,-147.7164,-13.89,77,20,1.54,US,1611505076
Kirakira,-10.4544,161.9205,26.44,76,100,2.8,SB,1611505239
Qaryat Sulūq,31.6682,20.2521,15.89,67,0,3.07,LY,1611505083
Xining,36.6167,101.7667,-6.67,94,94,1.06,CN,1611505240
Jega,12.2175,4.3792,33.99,10,92,4.81,NG,1611505240
San Matías,-16.3667,-58.4,34.92,50,62,0.9,BO,1611505240
San Patricio,28.017,-97.5169,24.0,88,90,10.8,US,1611505240
Yeppoon,-23.1333,150.7333,23.0,83,5,2.57,AU,1611505240
Kahului,20.8947,-156.47,21.11,82,1,2.06,US,1611505240
Husavik,66.0449,-17.3389,-3.0,86,90,4.63,IS,1611505133
Manakara,-22.1333,48.0167,27.14,78,11,1.88,MG,1611505241
Dakar,14.6937,-17.4441,25.0,38,0,2.06,SN,1611504771
Barañáin,42.8057,-1.6773,11.11,66,40,0.51,ES,1611505241
Tomari,47.7658,142.0683,-10.02,89,45,4.3,RU,1611505241
Ossora,59.2353,163.0719,-19.66,84,100,4.05,RU,1611505241
Kangaba,11.9333,-8.4167,35.11,8,0,2.53,ML,1611505241
Yar-Sale,66.8333,70.8333,-38.69,80,60,4.26,RU,1611505241
Kieta,-6.2167,155.6333,25.69,72,94,1.5,PG,1611505242
Lalín,42.7167,-8.1167,12.78,87,75,3.6,ES,1611505242
Nurota,40.5614,65.6886,1.0,60,54,6.17,UZ,1611505242
Huarmey,-10.0681,-78.1522,24.69,63,11,3.97,PE,1611505242
Yamada,39.4667,141.95,0.41,90,100,1.68,JP,1611505242
Faanui,-16.4833,-151.75,27.18,73,22,6.0,PF,1611505142
Murmashi,68.8154,32.8115,-15.0,85,75,2.0,RU,1611505243
San Fernando del Valle de Catamarca,-28.4696,-65.7852,32.78,51,23,3.58,AR,1611505229
Laguna,38.421,-121.4238,4.44,93,20,3.09,US,1611505243
Sivaki,52.6333,126.75,-27.96,82,80,2.18,RU,1611505243
Mabay,6.0577,124.4666,25.99,76,76,1.55,PH,1611505243
Severo-Kuril'sk,50.6789,156.125,-9.28,88,95,2.5,RU,1611505243
Iqaluit,63.7506,-68.5145,-17.0,78,75,9.26,CA,1611505243
Kampene,-3.6,26.6667,22.12,95,100,0.97,CD,1611505243
Thompson,55.7435,-97.8558,-25.0,70,75,4.63,CA,1611505243
Ust'-Omchug,61.15,149.6333,-37.58,75,43,2.2,RU,1611505244
Igarka,67.4667,86.5833,-40.22,72,2,0.57,RU,1611505244
Hofn,64.2539,-15.2082,0.0,51,75,11.32,IS,1611505244
Esfarāyen,37.0765,57.5101,-3.0,63,0,1.42,IR,1611505244
Sumter,28.7086,-82.0831,22.22,77,72,0.89,US,1611505124
Policarpa,1.6323,-77.462,26.6,57,74,1.43,CO,1611505244
Sistranda,63.7256,8.834,2.0,75,40,4.63,NO,1611505244
Buala,-8.145,159.5921,25.69,71,22,1.78,SB,1611505244
Ahipara,-35.1667,173.1667,19.03,93,60,4.26,NZ,1611505245
Mugur-Aksy,50.35,90.5,-24.02,74,100,1.8,RU,1611505245
Hobyo,5.3505,48.5268,24.71,71,1,10.12,SO,1611505245
Rosario,-32.9468,-60.6393,36.67,49,40,4.63,AR,1611505058
Seoul,37.5683,126.9778,2.0,93,0,1.03,KR,1611505245
Arlit,18.7369,7.3853,28.42,10,0,4.35,NE,1611505094
Bilibino,68.0546,166.4372,-34.23,81,98,0.75,RU,1611505246
Sabaudia,41.3003,13.0282,11.11,80,84,0.45,IT,1611505246
Guangyuan,32.442,105.823,0.56,99,86,9.39,CN,1611505246
Lakes Entrance,-37.8811,147.981,23.84,50,3,4.32,AU,1611505246
Wattegama,6.7989,81.4808,26.0,89,40,3.6,LK,1611505246
Fukuechō,32.6881,128.8419,12.1,77,29,11.91,JP,1611505083
Rongcheng,30.634,117.8517,6.87,87,19,0.93,CN,1611505246
Coffs Harbour,-30.3,153.1333,22.0,78,75,2.57,AU,1611505247
Tazovsky,67.4667,78.7,-40.55,81,13,0.95,RU,1611505247
Pemangkat,1.1667,108.9667,25.62,84,94,2.55,ID,1611505247
Ribeirão Bonito,-22.0667,-48.1761,26.78,69,100,2.32,BR,1611505247
Khovd,48.0056,91.6419,-14.08,63,100,3.08,MN,1611505247
Sribne,50.6638,32.9187,3.91,87,100,7.8,UA,1611505247
Twentynine Palms,34.1356,-116.0542,6.67,93,1,1.54,US,1611505247
Jiménez,28.3333,-105.4,12.0,58,1,3.09,MX,1611505247
Ginir,7.1333,40.7,18.56,34,80,3.58,ET,1611505040
Vostok,46.4856,135.8833,-16.26,94,41,1.41,RU,1611505248
Batagay-Alyta,67.8006,130.4114,-40.02,77,29,0.67,RU,1611505248
Lavrentiya,65.5833,-171.0,-17.68,84,100,2.14,RU,1611505248
Chiredzi,-21.05,31.6667,26.67,82,68,1.55,ZW,1611505248
Margate,51.3813,1.3862,2.78,83,100,0.89,GB,1611505248
Zeya,53.75,127.2667,-29.18,78,6,1.68,RU,1611505248
Pringsewu,-5.3582,104.9744,23.86,91,99,1.25,ID,1611505248
Tilichiki,60.4667,166.1,-24.21,89,100,5.85,RU,1611505147
Sharanga,57.1775,46.5396,0.64,98,100,3.27,RU,1611505249
The Pas,53.8251,-101.2541,-32.0,75,1,4.63,CA,1611505249
Amboasary,-25.0333,46.3833,28.0,83,20,6.17,MG,1611505249
Mehamn,71.0357,27.8492,-7.0,73,0,4.63,NO,1611505249
Saint-François,46.4154,3.9054,2.0,93,90,1.54,FR,1611505249
Ponta Delgada,37.7333,-25.6667,18.89,94,75,5.66,PT,1611505249
Portales,34.1862,-103.3344,0.0,80,1,5.66,US,1611504976
Scalea,39.813,15.7956,11.11,92,100,2.68,IT,1611505250
Scarborough,54.2797,-0.4044,0.0,85,100,1.7,GB,1611505250
Nelson Bay,-32.7167,152.15,21.67,83,41,2.57,AU,1611505250
Ventersburg,-28.0856,27.1381,24.61,52,100,10.4,ZA,1611505250
Kuytun,54.3419,101.5036,-18.43,91,100,0.71,RU,1611505250
Asău,46.4333,26.4,5.0,53,36,1.98,RO,1611505250
Dudinka,69.4058,86.1778,-37.7,83,75,1.99,RU,1611505250
Aloja,57.7669,24.8825,1.11,96,100,0.45,LV,1611505251
Gandiaye,14.2333,-16.2667,36.0,7,0,4.12,SN,1611505251
Bac Lieu,9.285,105.7244,24.34,79,66,5.32,VN,1611505251
Limbe,4.0242,9.2149,31.0,66,40,2.06,CM,1611505251
Broome,42.2506,-75.833,-6.67,67,90,4.12,US,1611505251
Sakakah,29.9697,40.2064,14.0,24,0,2.06,SA,1611505016
Chapais,49.7834,-74.8492,-16.0,72,90,6.17,CA,1611505251
Macao,22.2006,113.5461,18.0,88,40,4.12,MO,1611505252
Meadow Lake,34.8014,-106.5436,8.33,52,75,2.06,US,1611505252
Charagua,-19.8,-63.2167,31.0,51,40,4.22,BO,1611505252
Ulkan,57.243,107.3223,-28.33,85,77,0.49,RU,1611505252
Alagoinha,-6.95,-35.545,30.0,54,75,4.63,BR,1611505252
Marathon,44.9,-89.7668,-3.89,86,90,1.54,US,1611505252
Prieska,-29.6641,22.7474,33.57,24,80,4.86,ZA,1611505252
Nome,64.5011,-165.4064,-8.0,93,90,3.09,US,1611505133
Oktyabr'skiy,54.4815,53.471,0.9,93,100,5.35,RU,1611505253
Narasannapeta,18.4167,84.05,22.41,86,0,1.29,IN,1611505253
Hasaki,35.7333,140.8333,5.0,87,75,3.6,JP,1611505106
Vitim,59.4511,112.5578,-32.23,84,92,0.23,RU,1611505253
Zemio,5.0314,25.1361,27.86,32,100,1.2,CF,1611505253
Doctor Juan Manuel Frutos,-25.3667,-55.8,28.04,79,90,1.47,PY,1611505253
Magdagachi,53.45,125.8,-29.44,81,68,1.12,RU,1611505253
Ryōtsu-minato,38.0833,138.4333,6.02,76,80,3.12,JP,1611505254
Pacifica,37.6138,-122.4869,9.44,76,90,5.66,US,1611505254
Torbay,47.6666,-52.7314,0.56,69,20,5.66,CA,1611505254
Ndendé,-2.4008,11.3581,27.15,81,99,0.98,GA,1611505254
Dauphin,51.1494,-100.0502,-26.0,64,1,5.14,CA,1611505254
Myitkyina,25.3833,97.4,15.98,68,0,1.38,MM,1611505254
Sierra Vista,31.5545,-110.3037,6.67,75,1,6.69,US,1611505254
Aklavik,68.2191,-135.0107,-34.0,75,1,1.03,CA,1611505115
Gravdal,68.1214,13.5031,-4.0,74,75,3.6,NO,1611505255
Antón Lizardo,19.05,-95.9833,26.67,78,20,1.86,MX,1611505255
Shebalino,51.2917,85.6772,-23.38,85,97,0.8,RU,1611505255
Cabedelo,-6.9811,-34.8339,30.0,66,75,7.2,BR,1611505255
Waipawa,-41.4122,175.5153,16.0,77,48,6.69,NZ,1611505255
Campina Verde,-19.5356,-49.4864,31.63,43,82,2.27,BR,1611505256
Chimbote,-9.0853,-78.5783,25.29,61,59,4.29,PE,1611505256
Porto,41.1496,-8.611,13.0,94,20,3.6,PT,1611505209
Traralgon,-38.1833,146.5333,17.78,85,34,0.83,AU,1611505256
Guadalupe y Calvo,26.1,-106.9667,9.05,65,55,4.91,MX,1611505256
Dhidhdhoo,6.8833,73.1,28.06,69,70,3.04,MV,1611505247
Sítio Novo do Tocantins,-5.5183,-47.4611,31.0,58,40,4.63,BR,1611505257
Gladstone,-23.85,151.25,23.0,83,86,2.06,AU,1611505125
Talnakh,69.4865,88.3972,-35.39,74,94,1.36,RU,1611505257
Morón,-34.6534,-58.6198,36.11,34,0,1.34,AR,1611505257
Coyhaique,-45.5752,-72.0662,18.0,34,20,4.12,CL,1611505257
Palmer,42.1584,-72.3287,-4.44,39,0,1.79,US,1611505142
Tibati,6.4667,12.6333,33.36,15,100,0.96,CM,1611505258
Shirhatti,15.2333,75.5833,25.23,34,0,3.76,IN,1611505258
Lagos,6.5833,3.75,30.62,54,39,3.81,NG,1611504988
Ishigaki,24.3448,124.1572,17.99,66,100,4.69,JP,1611505258
Humaitá,-7.5061,-63.0208,28.52,83,44,1.18,BR,1611505241
Ranong,9.9658,98.6348,24.31,84,62,1.69,TH,1611505258
Afuá,-0.1567,-50.3867,27.64,83,61,2.8,BR,1611505258
Banepā,27.6298,85.5214,10.0,81,20,1.03,NP,1611505258
Atasū,48.6814,71.6433,-24.3,90,17,1.54,KZ,1611505259
Neuquén,-38.9516,-68.0591,29.0,42,0,1.03,AR,1611505229
Kiruna,67.8557,20.2251,-17.0,85,90,0.74,SE,1611505259
Bayangol,50.6977,103.4656,-17.99,91,100,1.21,RU,1611505259
Esmeralda,21.8525,-78.1169,25.0,69,75,4.63,CU,1611505259
Thinadhoo,0.5333,72.9333,28.32,68,43,2.19,MV,1611505259
Mouzourás,35.5333,24.15,14.0,88,20,2.06,GR,1611505259
Tura,25.5198,90.2201,15.37,58,0,1.57,IN,1611505259
Dunedin,-45.8742,170.5036,13.33,82,80,1.79,NZ,1611505260
Barcelos,41.5388,-8.6151,13.0,94,20,3.6,PT,1611505260
Örnsköldsvik,63.2909,18.7153,-7.0,93,90,2.06,SE,1611505260
Egvekinot,66.3167,-179.1667,-20.37,84,0,2.29,RU,1611505260
Qui Nhon,13.7667,109.2333,20.18,84,0,2.54,VN,1611505260
Saint-Pierre,-21.3393,55.4781,27.0,74,20,2.57,RE,1611505260
Constitución,-35.3333,-72.4167,20.34,63,51,2.38,CL,1611505079
San Diego de Los Baños,22.6467,-83.3697,25.09,65,73,2.45,CU,1611505260
College,64.8569,-147.8028,-13.89,77,20,1.54,US,1611505260
Grand Gaube,-20.0064,57.6608,24.44,88,48,2.66,MU,1611505102
Praia da Vitória,38.7333,-27.0667,19.0,77,40,10.13,PT,1611505261
Usinsk,65.9939,57.5281,-21.56,91,100,6.68,RU,1611505261
Amoy,24.4798,118.0819,14.0,72,20,2.0,CN,1611505261
Okhotsk,59.3833,143.3,-25.72,83,100,6.58,RU,1611505261
Touros,-5.1989,-35.4608,31.0,58,75,7.72,BR,1611505261
Hualmay,-11.0964,-77.6139,24.99,62,20,4.27,PE,1611505262
Geraldton,-28.7667,114.6,20.97,69,24,5.06,AU,1611505084
Duluth,46.7833,-92.1066,-6.0,73,1,3.09,US,1611505262
Itigi,-5.7,34.4833,20.21,82,99,1.99,TZ,1611505262
Port Lincoln,-34.7333,135.8667,25.47,45,99,3.17,AU,1611505262
Saint-Michel-des-Saints,46.6834,-73.9159,-13.89,91,62,5.19,CA,1611505262
Atambua,-9.1061,124.8925,24.11,86,99,0.77,ID,1611505262
Basco,20.4487,121.9702,22.29,80,100,10.91,PH,1611505262
Esperance,-33.8667,121.9,14.0,88,40,4.11,AU,1611505263
Maralal,1.0968,36.698,18.52,66,81,4.87,KE,1611505263
Williston,48.147,-103.618,-15.0,81,100,2.68,US,1611504982
Arrigorriaga,43.2101,-2.8856,13.33,67,75,1.54,ES,1611505263
Poya,-21.35,165.15,24.12,85,38,2.4,NC,1611505263
Sendhwa,21.6833,75.1,22.36,29,0,3.18,IN,1611505263
Biltine,14.5333,20.9167,31.46,12,19,4.85,TD,1611505263
Ndioum,16.5129,-14.6471,35.0,11,0,1.03,SN,1611505264
Bay Roberts,47.5999,-53.2648,0.56,70,60,2.24,CA,1611505086
Chillicothe,39.3331,-82.9824,-1.0,47,90,1.54,US,1611505264
St. Marys,30.7305,-81.5465,17.0,88,75,5.66,US,1611505202
Dzhebariki-Khaya,62.2167,135.8,-46.03,75,100,0.64,RU,1611505264
Mercedes,-34.6515,-59.4307,35.56,43,0,2.24,AR,1611505264
Zhigansk,66.7697,123.3711,-48.61,62,61,3.26,RU,1611505264
Tingi,-11.3,35.0333,19.85,95,100,1.48,TZ,1611505264
Samarinda,-0.5,117.15,23.53,93,84,0.43,ID,1611505265
Palauig,15.435,119.9045,26.41,77,50,1.42,PH,1611505265
St. George's,12.0564,-61.7485,29.0,58,20,7.2,GD,1611505131
Zheleznodorozhnyy,55.7503,38.0042,2.0,100,90,5.0,RU,1611505265
Masterton,-40.9597,175.6575,15.56,90,19,2.68,NZ,1611505265
Tomatlán,19.9333,-105.25,26.36,45,77,0.79,MX,1611505265
Buin,-33.7333,-70.75,31.67,44,0,2.06,CL,1611505265
Isangel,-19.55,169.2667,25.9,87,100,2.78,VU,1611505118
Makaha,21.4694,-158.2175,23.0,78,20,2.06,US,1611505265
Mandera,3.9366,41.867,33.12,19,64,4.47,KE,1611505266
Assiut,27.181,31.1837,15.0,55,0,5.14,EG,1611505266
Gbarnga,6.9956,-9.4722,35.05,13,0,1.74,LR,1611505266
Yumen,40.2833,97.2,-6.24,81,40,7.3,CN,1611505266
Alyangula,-13.8483,136.4192,25.0,100,75,4.35,AU,1611505158
Roebourne,-20.7833,117.1333,30.88,40,71,8.94,AU,1611505266
Deputatsky,69.3,139.9,-38.69,82,100,2.11,RU,1611505267
Hambantota,6.1241,81.1185,26.0,89,40,3.6,LK,1611505267
Ciceu-Giurgeşti,47.25,24.0167,7.22,65,0,2.57,RO,1611505267
Puerto del Rosario,28.5004,-13.8627,20.0,73,20,5.14,ES,1611505267
Luena,-11.7833,19.9167,21.19,90,91,1.86,AO,1611505267
Khakhea,-24.6895,23.494,34.99,17,71,5.61,BW,1611505267
Kiama,-34.6833,150.8667,23.33,84,100,0.45,AU,1611505267
Jizan,17.3333,42.6667,26.0,73,63,3.09,SA,1611505268
Cherskiy,68.75,161.3,-31.67,86,100,3.57,RU,1611505268
Haines Junction,60.7522,-137.5108,-11.0,92,100,0.36,CA,1611505268
Westport,41.1415,-73.3579,-1.67,31,1,6.69,US,1611505268
Kontagora,10.3999,5.4695,36.16,10,27,1.75,NG,1611505268
Broken Hill,-31.95,141.4333,31.0,18,97,4.63,AU,1611505268
Lafia,8.4833,8.5167,37.17,10,98,3.34,NG,1611505268
San Cosme y Damián,-27.3167,-56.35,30.0,70,40,3.6,PY,1611505268
Kyzyl-Suu,42.3414,78.0056,-9.02,80,37,3.2,KG,1611505269
Mahon,39.8885,4.2658,11.0,66,20,3.09,ES,1611505269
Sertã,39.8085,-8.0988,15.0,80,100,0.45,PT,1611505269
Sungai Penuh,-2.0833,101.3833,18.92,90,100,0.76,ID,1611505269
Naze,28.3667,129.4833,16.45,86,58,3.94,JP,1611505269
Hervey Bay,-25.2986,152.8535,22.78,94,84,3.09,AU,1611505269
Ciudad Bolivar,8.1222,-63.5497,31.27,44,16,4.87,VE,1611505269
Ulladulla,-35.35,150.4667,21.11,94,91,2.06,AU,1611505270
Herat Province,34.5,62.0,2.22,70,99,0.48,AF,1611505270
Il’inskiy,55.619,38.1182,2.0,100,90,5.0,RU,1611505270
Fare,-16.7,-151.0167,27.3,71,18,5.44,PF,1611505270
Altamira,-3.2033,-52.2064,30.0,70,75,2.57,BR,1611505270
Wufeng,27.45,104.8333,3.27,100,99,2.26,CN,1611505270
São José da Coroa Grande,-8.8978,-35.1478,28.37,68,32,5.66,BR,1611505270
San Cristobal,7.7669,-72.225,28.0,57,40,2.06,VE,1611504981
‘Āhuimanu,21.4447,-157.8378,23.0,78,90,7.2,US,1611505271
Rio Grande,-32.035,-52.0986,28.0,78,40,4.12,BR,1611505271
Kirillov,59.863,38.3813,0.0,100,90,2.0,RU,1611505271
Kon Tum,14.35,108.0,18.34,92,4,1.03,VN,1611505271
Douentza,14.9951,-2.9517,32.23,10,3,4.22,ML,1611505271
Wewak,-3.5534,143.6268,26.2,81,89,2.05,PG,1611505272
Sibu,2.3,111.8167,25.56,94,40,1.54,MY,1611505139
Oktyabr'skoye,43.0645,44.7417,-1.0,86,31,3.0,RU,1611505272
Muleba,-1.8397,31.6544,25.0,65,40,1.66,TZ,1611505272
Zhicheng,30.2956,111.5047,6.11,96,100,2.09,CN,1611505272
Gorontalo,0.5412,123.0595,23.61,90,100,1.61,ID,1611505272
Okha,53.5739,142.9478,-28.87,86,100,7.03,RU,1611505273
Warmbad,-28.45,18.7333,35.03,16,12,4.56,NA,1611505273
Río Gallegos,-51.6226,-69.2181,18.0,24,75,9.26,AR,1611505273
Mnogovershinnyy,53.9353,139.9242,-34.74,81,0,2.63,RU,1611505273
Antalya Province,36.7741,30.7178,11.67,93,75,2.57,TR,1611505046
Fuyu,45.1833,124.8167,-13.86,95,17,2.29,CN,1611505097
Baykit,61.67,96.37,-34.09,79,98,1.17,RU,1611505273
Aksu,41.1231,80.2644,-6.82,90,0,0.76,CN,1611505273
Dali,25.7,100.1833,6.92,80,1,2.6,CN,1611505274
Rosarito,32.3333,-117.0333,8.0,100,75,1.18,MX,1611505274
Clearwater,27.9659,-82.8001,22.22,73,12,1.54,US,1611505230
Cedar Rapids,42.0083,-91.6441,-1.11,93,90,2.57,US,1611505274
Tuatapere,-46.1333,167.6833,13.89,89,73,4.47,NZ,1611505274
Novikovo,51.1537,37.8879,2.29,84,100,5.11,RU,1611505274
Acăţari,46.4798,24.6332,5.0,81,40,3.09,RO,1611505275
Lorengau,-2.0226,147.2712,27.36,72,100,1.88,PG,1611505275
Okakarara,-20.5833,17.4333,28.21,40,95,1.21,NA,1611505275
Ashquelon,31.6693,34.5715,15.56,46,0,1.19,IL,1611505275
Port Blair,11.6667,92.75,24.69,71,35,4.11,IN,1611505106
Nagorsk,59.3172,50.8078,-2.65,98,100,3.39,RU,1611505275
Chapleau,47.8405,-83.4034,-9.0,79,90,2.57,CA,1611505275
Bull Savanna,17.8868,-77.5902,26.8,62,44,1.33,JM,1611505275
Karratha,-20.7377,116.8463,30.16,40,57,9.68,AU,1611505276
North Platte,41.1239,-100.7654,-4.44,86,0,0.45,US,1611505084
Namanyere,-7.5167,31.05,18.98,93,99,0.77,TZ,1611505276
Coulommiers,48.8145,3.085,1.11,92,100,2.24,FR,1611505276
Pozo Colorado,-23.4923,-58.7972,35.02,41,98,3.3,PY,1611505276
Kapoeta,4.7717,33.5903,32.4,27,35,4.74,SS,1611505276
La Ronge,55.1001,-105.2842,-38.0,67,0,0.2,CA,1611505276
Trincomalee,8.5711,81.2335,25.34,71,64,5.0,LK,1611505277
Manjacaze,-24.7117,33.8828,27.4,73,100,3.22,MZ,1611505277
Ylöjärvi,61.5563,23.5961,0.56,100,90,1.54,FI,1611505277
Jalu,29.0331,21.5482,16.72,28,0,2.96,LY,1611505277
Mayumba,-3.432,10.6554,27.2,78,97,3.17,GA,1611505277
São Sepé,-30.1606,-53.5653,31.0,58,75,2.57,BR,1611505277
Togur,58.3631,82.8265,-45.5,76,52,1.91,RU,1611505277
Narsaq,60.9167,-46.05,-1.0,29,0,12.86,GL,1611505135
Santa Isabel Rio Negro,-0.4139,-65.0192,23.71,96,99,1.69,BR,1611505278
Vanimo,-2.6741,141.3028,25.77,83,100,2.0,PG,1611505278
The Valley,18.217,-63.0578,29.0,69,40,7.2,AI,1611505278
Quevedo,-1.0333,-79.45,24.99,88,100,4.71,EC,1611505278
Santo Antônio do Içá,-3.1022,-67.9397,32.29,54,98,0.73,BR,1611505278
Bereda,43.2686,-7.5406,10.56,93,100,4.47,ES,1611505279
Panórama,40.5878,23.0315,14.44,67,40,5.66,GR,1611505279
João Pinheiro,-17.7425,-46.1725,27.37,55,63,1.77,BR,1611505279
Suntar,62.1444,117.6319,-43.59,75,0,1.65,RU,1611505279
Tateyama,34.9833,139.8667,7.0,87,75,6.69,JP,1611505279
Baloy,15.8053,120.7742,23.88,88,88,2.09,PH,1611505279
Nchelenge,-9.3451,28.734,23.8,77,99,2.37,ZM,1611505279
Måløy,61.9353,5.1136,3.0,65,75,4.63,NO,1611505279
Al Bardīyah,31.7561,25.0865,16.44,37,0,4.39,LY,1611505280
Berbera,10.4396,45.0143,24.28,66,100,4.95,SO,1611505120
Zhangaözen,43.3,52.8,0.09,88,0,8.83,KZ,1611505280
Novozybkov,52.5396,31.9275,5.0,100,90,5.0,RU,1611505149
Dandong,40.1292,124.3947,0.63,92,17,1.21,CN,1611505280
Kainantu,-6.2887,145.8655,15.79,96,94,1.26,PG,1611505280
Guayaramerín,-10.8368,-65.3614,25.0,83,40,0.85,BO,1611505281
Christchurch,-43.5333,172.6333,14.44,100,4,2.06,NZ,1611505281
Toccoa,34.5773,-83.3324,9.0,25,1,1.54,US,1611505281
Olinda,-8.0089,-34.8553,28.0,61,75,5.66,BR,1611505051
Yinzhu,35.8786,119.9753,5.56,93,100,2.0,CN,1611505203
Verkhnyaya Inta,65.9811,60.3094,-22.53,89,100,5.42,RU,1611505281
Agadez,19.75,10.25,22.12,16,0,3.79,NE,1611505282
Kopavogur,64.1123,-21.913,-1.0,64,0,7.72,IS,1611505282
Āreka,7.0667,37.7,22.32,31,20,2.06,ET,1611505282
Kroya,-7.6331,109.2461,25.29,84,99,1.95,ID,1611505282
Falmouth,50.1544,-5.0711,5.0,70,20,9.77,GB,1611505282
Mumford,5.2618,-0.759,27.48,72,81,5.77,GH,1611505282
Ambalavao,-21.8333,46.9333,21.16,86,100,1.48,MG,1611505283
Soyo,-6.1349,12.3689,30.0,74,20,3.6,AO,1611505283
Abu Samrah,35.3029,37.1841,7.72,55,11,2.6,SY,1611505283
