City,Lat,Lng,Max Temp,Humidity,Cloudiness,Wind Speed,Country,Date
Hilo,19.7297,-155.09,73.4,73,75,6.91,US,1611515822
Mayo,38.8876,-76.5119,37.99,41,40,5.75,US,1611515962
Hermanus,-34.4187,19.2345,64.99,70,24,5.99,ZA,1611515838
Atbasar,51.8,68.3333,-2.47,92,100,9.37,KZ,1611515962
Puerto Ayora,-0.7393,-90.3518,84.2,70,40,16.11,EC,1611515837
Liverpool,53.4106,-2.9779,33.8,86,20,6.91,GB,1611515950
Port Blair,11.6667,92.75,74.88,67,64,6.4,IN,1611515889
Upernavik,72.7868,-56.1549,15.1,94,30,15.21,GL,1611515963
Lebu,-37.6167,-73.65,61.38,67,0,17.16,CL,1611515963
Albany,42.6001,-73.9662,23.0,36,4,13.0,US,1611515831
Olafsvik,64.8945,-23.7142,28.29,91,70,29.15,IS,1611515857
Kysyl-Syr,63.8986,122.7617,-51.74,76,65,2.53,RU,1611515963
Nyrob,60.733,56.7202,5.58,94,100,6.11,RU,1611515963
Mama,58.3106,112.8986,-21.66,79,30,3.09,RU,1611515963
East London,-33.0153,27.9116,64.4,88,90,5.75,ZA,1611515964
Chui,-33.6971,-53.4616,80.8,61,1,11.68,UY,1611515869
Belmonte,-15.8631,-38.8828,78.8,89,90,3.44,BR,1611515964
Khatanga,71.9667,102.5,-19.17,87,100,10.42,RU,1611515674
Hobart,-42.8794,147.3294,68.0,42,0,8.05,AU,1611515964
Nanortalik,60.1432,-45.2371,22.06,90,0,9.95,GL,1611515964
Busselton,-33.65,115.3333,50.0,92,0,5.19,AU,1611515964
São Filipe,14.8961,-24.4956,74.64,62,0,8.28,CV,1611515865
Bathsheba,13.2167,-59.5167,82.4,65,75,14.97,BB,1611515874
Salinópolis,-0.6136,-47.3561,80.82,83,99,10.76,BR,1611515965
Dandong,40.1292,124.3947,33.3,91,99,3.0,CN,1611515965
Mahajanga,-15.7167,46.3167,82.4,78,20,8.05,MG,1611515965
Barrow,71.2906,-156.7887,-2.2,71,1,21.85,US,1611515965
Saint-Philippe,-21.3585,55.7679,80.6,74,40,4.61,RE,1611515965
Norrtälje,59.758,18.705,35.01,89,100,1.99,SE,1611515965
Torbay,47.6666,-52.7314,32.0,69,40,10.36,CA,1611515966
Jamestown,42.097,-79.2353,27.0,58,90,3.89,US,1611515966
Ca Mau,9.1769,105.15,73.71,85,66,4.07,VN,1611515966
Butaritari,3.0707,172.7902,78.78,79,68,11.07,KI,1611515966
Port Alfred,-33.5906,26.891,64.0,91,97,3.0,ZA,1611515966
Cape Town,-33.9258,18.4232,68.0,56,0,19.57,ZA,1611515902
Rikitea,-23.1203,-134.9692,79.57,66,0,8.57,PF,1611515966
Cayenne,4.9333,-52.3333,86.0,70,75,12.66,GF,1611515966
Batagay-Alyta,67.8006,130.4114,-36.44,78,93,0.74,RU,1611515967
Husavik,66.0449,-17.3389,24.8,93,90,6.91,IS,1611515967
Ushuaia,-54.8,-68.3,66.2,30,40,20.71,AR,1611515673
Mataura,-46.1927,168.8643,59.0,86,86,14.0,NZ,1611515967
Punta Arenas,-53.15,-70.9167,66.2,34,75,18.41,CL,1611515582
Chokurdakh,70.6333,147.9167,-31.79,82,100,12.01,RU,1611515674
Kapaa,22.0752,-159.319,75.99,83,1,18.41,US,1611515967
Samfya,-11.3649,29.5565,66.33,95,100,2.66,ZM,1611515967
Kisangani,0.5167,25.2,71.06,94,100,2.55,CD,1611515968
Port Elizabeth,-33.918,25.5701,66.2,77,90,5.75,ZA,1611515968
Diu,20.7141,70.9822,65.75,53,0,5.14,IN,1611515968
Darłowo,54.421,16.4107,32.0,10,100,3.18,PL,1611515968
Nikolskoye,59.7035,30.7861,35.6,87,90,8.95,RU,1611515968
Taree,-31.9,152.4667,64.4,94,36,4.25,AU,1611515968
Bluff,-46.6,168.3333,59.0,86,100,14.0,NZ,1611515968
Yellowknife,62.456,-114.3525,-14.01,76,90,8.05,CA,1611515697
Saldanha,-33.0117,17.9442,66.2,55,0,16.11,ZA,1611515968
Cícero Dantas,-10.6,-38.3833,86.97,42,100,14.61,BR,1611515969
Kutum,14.2,24.6667,64.72,26,0,8.84,SD,1611515969
Provideniya,64.3833,-173.3,2.43,85,11,1.77,RU,1611515969
Mahébourg,-20.4081,57.7,78.8,83,75,1.14,MU,1611515769
Bredasdorp,-34.5322,20.0403,66.2,59,48,13.8,ZA,1611515969
Yangi Marg`ilon,40.4272,71.7189,26.6,63,0,2.3,UZ,1611515969
Bilibino,68.0546,166.4372,-28.12,82,100,1.63,RU,1611515969
Thompson,55.7435,-97.8558,-9.4,70,75,11.5,CA,1611515710
Vestmannaeyjar,63.4427,-20.2734,35.6,51,75,14.97,IS,1611515970
Berbera,10.4396,45.0143,74.93,66,83,7.23,SO,1611516100
Solnechnyy,50.7214,136.6319,-10.21,84,0,3.11,RU,1611516100
Ponta do Sol,32.6667,-17.1,62.01,76,0,1.99,PT,1611515839
Basco,20.4487,121.9702,71.87,81,98,23.6,PH,1611516100
Castro,-24.7911,-50.0119,68.81,93,100,4.18,BR,1611516100
Inhambane,-23.865,35.3833,82.4,83,20,11.5,MZ,1611516101
New Port Richey,28.2442,-82.7193,77.0,72,47,4.0,US,1611516101
Linhares,-19.3911,-40.0722,82.76,66,10,8.88,BR,1611516101
Adrar,20.5022,-10.0711,70.99,16,100,7.38,MR,1611515945
Constitución,-35.3333,-72.4167,68.5,61,21,7.94,CL,1611515806
Porto Santo,33.072,-16.3415,62.6,82,20,3.44,PT,1611516101
Vila Franca do Campo,37.7167,-25.4333,64.0,94,40,13.8,PT,1611516101
Ribeira Grande,38.5167,-28.7,64.4,94,75,24.16,PT,1611516102
Puerto Colombia,10.9878,-74.9547,86.0,66,0,10.36,CO,1611516102
Lüderitz,-26.6481,15.1594,69.33,54,97,28.41,NA,1611515858
Sambava,-14.2667,50.1667,78.71,79,26,1.81,MG,1611516102
Nizwá,22.9333,57.5333,60.91,43,0,3.8,OM,1611516102
Atuona,-9.8,-139.0333,77.79,79,15,16.91,PF,1611516102
Airai,-8.9266,125.4092,60.76,100,89,1.99,TL,1611516102
Betioky,-23.7167,44.3833,78.51,70,5,3.09,MG,1611516102
Tuktoyaktuk,69.4541,-133.0374,-7.6,77,90,2.3,CA,1611516103
Dikson,73.5069,80.5464,-14.82,89,100,11.83,RU,1611516085
Forsytheganj,52.6333,29.7333,39.09,97,100,12.03,BY,1611516103
Kerema,-7.9631,145.7785,79.38,77,98,3.0,PG,1611516103
Bambous Virieux,-20.3428,57.7575,78.8,83,75,1.14,MU,1611516103
Tilichiki,60.4667,166.1,-10.43,92,100,15.82,RU,1611516103
Faanui,-16.4833,-151.75,81.39,72,0,13.38,PF,1611515843
Cassilândia,-19.1133,-51.7342,87.89,50,55,2.93,BR,1611516103
Vaini,-21.2,-175.2,75.2,100,75,4.61,TO,1611516103
Adré,13.4667,22.2,74.25,20,0,9.78,TD,1611516104
Hashtrūd,37.4779,47.0508,12.25,79,0,1.07,IR,1611516104
Qaanaaq,77.484,-69.3632,8.44,78,0,3.31,GL,1611516104
Mar del Plata,-38.0023,-57.5575,80.6,74,0,16.11,AR,1611515838
Rawson,-43.3002,-65.1023,78.62,51,0,14.36,AR,1611516045
Los Angeles,34.0522,-118.2437,55.0,62,1,3.44,US,1611515428
Leningradskiy,69.3833,178.4167,-17.27,83,0,2.06,RU,1611516104
Wanparti,16.3667,78.0667,70.25,52,5,7.23,IN,1611516105
Puri,19.8,85.85,71.6,94,20,7.61,IN,1611516105
Vila Velha,-20.3297,-40.2925,87.01,69,40,16.11,BR,1611516105
Socorro,31.6546,-106.3033,61.0,31,20,12.66,US,1611516105
Mariel,22.9875,-82.7536,80.6,54,40,4.61,CU,1611516105
Kahului,20.8947,-156.47,75.2,69,20,14.5,US,1611516106
Cairns,-16.9167,145.7667,71.6,88,99,9.22,AU,1611516106
Beringovskiy,63.05,179.3167,-2.79,89,73,11.14,RU,1611516091
College,64.8569,-147.8028,7.0,77,75,1.9,US,1611516106
Hong Kong,22.2855,114.1577,64.0,78,84,1.01,HK,1611515931
Lata,40.1629,-8.3327,55.99,95,100,5.01,PT,1611516084
Hofn,64.2539,-15.2082,28.98,88,0,21.68,IS,1611516106
Camabatela,-8.1881,15.375,62.94,99,100,1.97,AO,1611516106
Hambantota,6.1241,81.1185,77.0,94,40,6.91,LK,1611516107
Gazalkent,41.5581,69.7708,28.4,86,59,6.91,UZ,1611516107
Selizharovo,56.8519,33.4487,37.15,97,100,11.01,RU,1611516107
Hithadhoo,-0.6,73.0833,82.26,68,97,2.86,MV,1611515851
Port Lincoln,-34.7333,135.8667,73.92,55,100,11.86,AU,1611516107
Cabo San Lucas,22.8909,-109.9124,73.99,49,20,10.36,MX,1611516027
Cueto,20.6439,-75.9356,84.2,51,40,9.22,CU,1611516107
Plymouth,41.8334,-70.8328,33.8,27,1,18.41,US,1611516107
Katsuura,35.1333,140.3,44.6,81,75,14.97,JP,1611515911
Longyearbyen,78.2186,15.6401,14.0,67,75,13.8,SJ,1611516108
Maun,-19.9833,23.4167,78.8,100,0,2.3,BW,1611516108
New Norfolk,-42.7826,147.0587,64.99,72,9,3.0,AU,1611516016
Thinadhoo,0.5333,72.9333,82.4,70,100,5.44,MV,1611516108
Tessalit,20.1986,1.0114,70.39,16,0,10.89,ML,1611515875
Mahuta,-10.8667,39.45,69.46,100,98,3.09,TZ,1611516108
Geraldton,-28.7667,114.6,69.15,68,4,11.88,AU,1611516108
Muros,42.7762,-9.0603,54.0,88,100,12.1,ES,1611515857
Kavaratti,10.5669,72.642,81.34,76,0,7.47,IN,1611516109
Esperance,-33.8667,121.9,57.2,94,40,3.44,AU,1611515853
Saint-Joseph,-21.3667,55.6167,80.6,74,40,4.61,RE,1611516109
Mehamn,71.0357,27.8492,21.2,73,40,9.22,NO,1611516109
Tasiilaq,65.6145,-37.6368,14.0,48,0,4.61,GL,1611515839
Taos,36.4072,-105.5731,43.0,52,90,19.57,US,1611516109
Bozeman,45.6796,-111.0386,24.01,63,1,0.6,US,1611515989
San Patricio,28.017,-97.5169,78.8,83,90,23.02,US,1611516109
Saint Paul Harbor,57.79,-152.4072,37.4,48,1,28.77,US,1611515836
El Salvador,13.8333,-88.9167,91.4,48,40,6.91,SV,1611516110
Coyhaique,-45.5752,-72.0662,64.4,36,40,9.22,CL,1611516069
George Town,5.4112,100.3354,81.0,94,40,2.3,MY,1611515841
Sena Madureira,-9.0656,-68.6569,76.48,85,100,2.82,BR,1611516110
Fairbanks,64.8378,-147.7164,7.0,77,75,1.97,US,1611515852
Gravdal,68.1214,13.5031,24.8,80,75,5.75,NO,1611516110
Nemuro,43.3236,145.575,28.18,90,0,5.77,JP,1611516111
Gernsbach,48.7667,8.3333,35.01,74,0,2.3,DE,1611516111
Lorengau,-2.0226,147.2712,81.09,71,100,3.53,PG,1611516111
Lethem,3.3803,-59.7968,84.2,79,40,13.8,GY,1611516111
Aksarka,66.5606,67.7975,-30.82,82,100,7.14,RU,1611516111
Lavrentiya,65.5833,-171.0,0.61,85,100,3.4,RU,1611516111
Ancud,-41.8697,-73.8203,68.0,45,0,8.05,CL,1611516111
Aden,12.7794,45.0367,75.31,72,1,15.21,YE,1611516012
Bokhan,53.153,103.7714,1.72,89,100,3.6,RU,1611516112
Kushiro,42.975,144.3747,21.0,89,0,6.02,JP,1611516112
Pevek,69.7008,170.3133,-18.02,89,100,8.75,RU,1611516112
Hirara,24.8,125.2833,64.8,62,100,5.35,JP,1611516112
Alice Springs,-23.7,133.8833,80.6,61,90,10.36,AU,1611515846
Buenavista,8.9769,125.4089,73.33,89,93,4.61,PH,1611516112
Narsaq,60.9167,-46.05,28.4,29,0,29.93,GL,1611516112
Avarua,-21.2078,-159.775,84.2,70,40,12.66,CK,1611515859
Vestmanna,62.1564,-7.1664,35.6,75,88,21.85,FO,1611516066
Toritama,-8.0067,-36.0567,86.29,49,100,12.64,BR,1611516113
Porto Walter,-8.2686,-72.7439,84.29,75,57,1.57,BR,1611516113
Chkalovskoye,44.8392,133.0436,3.06,91,0,4.83,RU,1611516113
Khovd,48.0056,91.6419,5.13,64,100,7.0,MN,1611515892
West Monroe,32.5185,-92.1476,60.8,94,90,4.34,US,1611516113
Kaeo,-35.1,173.7833,70.0,85,27,4.0,NZ,1611516113
Clyde River,70.4692,-68.5914,8.6,92,75,20.71,CA,1611516113
Naze,28.3667,129.4833,62.38,86,95,13.98,JP,1611515850
Córdoba,-31.4135,-64.1811,75.2,78,40,17.27,AR,1611515858
Severo-Kuril'sk,50.6789,156.125,15.84,95,100,7.63,RU,1611515837
San Policarpo,12.1791,125.5072,78.53,81,31,8.84,PH,1611516114
Tautira,-17.7333,-149.15,86.0,66,40,4.61,PF,1611515864
Tiksi,71.6872,128.8694,-44.93,78,41,8.28,RU,1611516114
Severnyy,50.677,36.5532,37.4,75,0,15.66,RU,1611516114
Cherskiy,68.75,161.3,-24.65,86,100,7.74,RU,1611516101
Ponta Delgada,37.7333,-25.6667,64.0,94,40,13.8,PT,1611516114
Shirokiy,49.758,129.523,-15.75,83,89,6.29,RU,1611516115
Çay,38.5917,31.0286,38.91,82,99,7.78,TR,1611516115
Pacific Grove,36.6177,-121.9166,52.0,76,90,6.91,US,1611516115
Kaitangata,-46.2817,169.8464,56.93,81,100,4.99,NZ,1611516115
Carnarvon,-24.8667,113.6333,73.4,73,0,16.11,AU,1611516115
Gmina Świecie,53.4095,18.4474,35.01,95,100,1.01,PL,1611516115
São Félix do Xingu,-6.6447,-51.995,82.74,83,32,1.86,BR,1611516115
Evensk,61.95,159.2333,-20.49,77,0,10.8,RU,1611515851
Lukulu,-14.3707,23.242,68.65,90,100,5.21,ZM,1611516116
Araouane,18.9048,-3.5265,72.77,16,70,8.95,ML,1611516087
Tuatapere,-46.1333,167.6833,60.01,85,96,15.01,NZ,1611516116
Hampton,37.0299,-76.3452,39.99,38,40,11.5,US,1611516103
Richards Bay,-28.783,32.0377,72.09,87,100,14.29,ZA,1611516116
Tikrit,34.6071,43.6782,49.15,44,0,3.78,IQ,1611516116
San Miguel,13.4833,-88.1833,91.4,35,0,5.75,SV,1611515842
Quartucciu,39.2519,9.1794,52.0,66,0,8.05,IT,1611516116
Ferkessédougou,9.6,-5.2,82.02,15,0,3.71,CI,1611516117
Zhangye,38.9342,100.4517,20.05,85,100,1.01,CN,1611516117
Ahipara,-35.1667,173.1667,66.92,92,47,9.04,NZ,1611516117
Chimichagua,9.2578,-73.8123,99.72,33,30,3.02,CO,1611516117
Le Vauclin,14.5452,-60.8388,82.4,65,90,12.66,MQ,1611516117
Yarmouth,41.7057,-70.2286,33.8,25,1,17.27,US,1611516117
Zhigansk,66.7697,123.3711,-55.5,63,56,7.11,RU,1611515870
Salalah,17.0151,54.0924,69.8,60,0,3.44,OM,1611515904
Vanavara,60.34,102.2797,-20.11,87,99,2.33,RU,1611516117
Labuan,5.2767,115.2417,77.0,94,20,1.14,MY,1611516118
Puerto Nariño,-3.7703,-70.3831,87.8,66,40,6.91,CO,1611516041
Lompoc,34.6391,-120.4579,55.4,62,75,6.91,US,1611516099
Bethel,41.3712,-73.414,30.99,29,1,16.11,US,1611515860
La Asuncion,11.0333,-63.8628,79.68,71,27,13.98,VE,1611516118
Teluk Nibung,3.001,99.8164,74.52,88,56,3.74,ID,1611516118
Vilhena,-12.7406,-60.1458,75.2,83,75,19.57,BR,1611516118
Nuuk,64.1835,-51.7216,21.2,58,0,3.44,GL,1611516118
Dunedin,-45.8742,170.5036,60.01,78,57,1.99,NZ,1611516118
Chapais,49.7834,-74.8492,5.0,78,90,11.5,CA,1611516119
Manggar,-2.8833,108.2667,79.25,85,100,5.23,ID,1611516119
Astoria,46.1879,-123.8313,39.2,93,90,3.44,US,1611515865
Alta Gracia,-31.6529,-64.4283,75.2,78,40,17.27,AR,1611516119
Sur,22.5667,59.5289,67.15,51,0,11.12,OM,1611516119
Hasaki,35.7333,140.8333,41.0,93,75,10.36,JP,1611516114
Sechura,-5.5569,-80.8222,81.57,55,100,14.56,PE,1611516119
São João da Barra,-21.6403,-41.0511,86.0,48,0,16.11,BR,1611516119
Pouébo,-20.4,164.5667,77.23,85,100,17.43,NC,1611516119
Waitati,-45.75,170.5667,60.01,78,33,1.99,NZ,1611516120
Walvis Bay,-22.9575,14.5053,71.6,73,100,3.44,NA,1611516008
Avon Park,27.5959,-81.5062,80.01,53,40,5.3,US,1611516120
Vostok,46.4856,135.8833,1.65,93,2,3.02,RU,1611516120
Mount Gambier,-37.8333,140.7667,71.6,46,90,5.75,AU,1611516120
Sattahip,12.6664,100.9007,73.4,94,0,3.44,TH,1611516120
Srednekolymsk,67.45,153.6833,-28.8,84,100,8.5,RU,1611516120
Smithers,54.7804,-127.1743,17.6,93,90,1.63,CA,1611516120
Kropotkin,45.4375,40.5756,35.01,83,100,6.67,RU,1611515943
Antofagasta,-23.65,-70.4,75.99,64,20,16.11,CL,1611516121
Sitka,57.0531,-135.33,35.6,93,90,9.22,US,1611515847
Port Macquarie,-31.4333,152.9167,63.0,99,11,11.68,AU,1611516121
Isangel,-19.55,169.2667,75.2,94,90,9.04,VU,1611516088
Avera,33.194,-82.5271,57.2,44,90,4.61,US,1611516121
Zabaykal'sk,49.6333,117.3167,-0.87,92,100,6.62,RU,1611516121
Ulladulla,-35.35,150.4667,68.0,94,90,4.52,AU,1611516121
Barra de Tecoanapa,16.5167,-98.75,83.1,63,100,6.46,MX,1611516121
Santiago de Cao,-7.9589,-79.2392,73.4,78,40,6.91,PE,1611516122
Weinan,34.5036,109.5089,39.99,87,90,11.18,CN,1611516122
Dingle,10.9995,122.6711,75.49,91,89,6.26,PH,1611515861
Sayán,-11.1361,-77.1933,80.38,45,63,9.57,PE,1611516122
Vila do Maio,15.1333,-23.2167,75.2,57,0,16.11,CV,1611516122
Kruisfontein,-34.0033,24.7314,64.0,80,100,5.01,ZA,1611515831
Kalemie,-5.9475,29.1947,71.04,83,95,5.37,CD,1611516123
Mitsamiouli,-11.3847,43.2844,80.6,78,20,9.22,KM,1611516123
Iqaluit,63.7506,-68.5145,1.4,78,75,16.11,CA,1611516095
Vuktyl,63.8567,57.3094,-11.11,90,100,9.82,RU,1611516123
Baoshan,46.5586,131.4244,-1.05,84,0,3.13,CN,1611516123
Beitbridge,-22.2167,30.0,72.54,85,100,4.36,ZW,1611516123
Tura,25.5198,90.2201,58.6,58,0,3.56,IN,1611515880
Moose Factory,51.2585,-80.6094,6.8,60,1,5.75,CA,1611516123
Emerald,-23.5333,148.1667,69.8,78,0,1.14,AU,1611515900
Karatau,43.1667,70.4667,16.29,97,100,2.93,KZ,1611516123
Laguna,38.421,-121.4238,51.01,76,75,8.05,US,1611516057
Arraial do Cabo,-22.9661,-42.0278,86.0,78,0,14.97,BR,1611516086
Gushikawa,26.3544,127.8686,62.6,82,75,3.44,JP,1611516124
Alihe,50.5667,123.7167,-3.21,88,100,2.3,CN,1611516124
Penzance,50.1186,-5.5371,39.99,70,40,21.85,GB,1611516124
Glencoe,-28.1783,30.147,60.01,96,100,5.99,ZA,1611516124
Yulara,-25.2406,130.9889,80.6,69,90,10.36,AU,1611516124
Juneau,58.3019,-134.4197,33.8,86,90,6.91,US,1611515843
Isugod,9.3408,118.1196,76.68,84,31,3.51,PH,1611516125
Miquelon,47.0975,-56.3814,32.0,55,75,5.75,PM,1611516125
Kumluca,36.3703,30.2869,55.11,76,96,3.87,TR,1611516125
Pisco,-13.7,-76.2167,80.6,57,0,6.91,PE,1611515853
Fort Nelson,58.8053,-122.7002,-2.2,84,90,2.46,CA,1611516125
Sabrūm,23.0,91.7319,57.97,65,0,3.51,IN,1611516125
Ozernovskiy,51.5,156.5167,13.62,91,100,2.21,RU,1611516119
Poya,-21.35,165.15,74.97,85,61,7.45,NC,1611516126
Sinnamary,5.3833,-52.95,79.61,75,74,11.9,GF,1611516126
Ransang,8.9603,117.5828,77.83,83,90,2.84,PH,1611516126
Konya Province,38.1667,32.5,41.0,65,0,5.75,TR,1611516127
Antalaha,-14.9003,50.2788,76.8,82,8,2.91,MG,1611516127
Stokmarknes,68.5646,14.9108,23.0,74,40,11.5,NO,1611516127
Pangody,65.85,74.4859,-40.11,76,0,6.49,RU,1611516127
Karratha,-20.7377,116.8463,82.44,40,10,16.51,AU,1611516127
Kolvereid,64.8655,11.6047,33.8,93,90,9.22,NO,1611516127
Saint George,37.1041,-113.5841,48.0,56,1,2.55,US,1611515856
Esmeraldas,-19.7625,-44.3139,86.0,51,75,11.5,BR,1611516128
Bilma,18.6853,12.9164,64.06,22,0,7.92,NE,1611516128
Cidreira,-30.1811,-50.2056,79.88,69,0,11.01,BR,1611516128
Toppenish,46.3774,-120.3087,30.99,86,40,2.15,US,1611515927
Morón,-34.6534,-58.6198,98.01,30,0,3.0,AR,1611516120
Bubaque,11.2833,-15.8333,79.23,54,0,12.17,GW,1611515890
Leticia,-4.2153,-69.9406,87.8,66,40,6.91,CO,1611516128
Saskylakh,71.9167,114.0833,-38.22,79,1,6.67,RU,1611516128
Wang Saphung,17.301,101.7685,73.0,66,71,1.86,TH,1611516129
Les Cayes,18.2,-73.75,81.25,72,78,7.43,HT,1611516129
Dudinka,69.4058,86.1778,-36.15,83,75,5.37,RU,1611516129
Ilulissat,69.2167,-51.1,19.4,38,0,10.36,GL,1611516129
Joshīmath,30.5667,79.5667,37.53,46,0,6.22,IN,1611516129
Port Hardy,50.6996,-127.4199,35.6,100,90,5.75,CA,1611516117
Bousso,10.4795,16.7117,80.56,17,70,7.61,TD,1611516130
Santa Marta,11.2408,-74.199,89.01,60,53,14.0,CO,1611516130
Broome,42.2506,-75.833,23.0,62,40,16.11,US,1611516130
Gōtsuchō,35.0,132.2167,42.67,77,100,6.26,JP,1611516130
Cururupu,-1.8283,-44.8683,79.86,88,100,4.65,BR,1611516130
Arrondissement de Foix,42.8333,1.5833,43.0,40,100,1.99,FR,1611516131
Byron Bay,-28.65,153.6167,66.2,94,75,4.61,AU,1611516066
Kloulklubed,7.0419,134.2556,78.8,78,75,6.91,PW,1611516131
Ostrovnoy,68.0531,39.5131,11.62,95,100,11.21,RU,1611516131
Staraya Kulatka,52.7167,47.6167,30.67,98,100,13.38,RU,1611516131
Coos Bay,43.3665,-124.2179,44.6,93,90,9.22,US,1611516131
Lima,-12.0432,-77.0282,82.4,57,0,5.75,PE,1611516132
Koumra,8.9126,17.5539,82.26,16,0,3.67,TD,1611516132
Suntar,62.1444,117.6319,-47.04,74,0,3.02,RU,1611516132
Panguna,-6.3164,155.4848,66.65,94,99,1.12,PG,1611516132
Sfântu Gheorghe,45.8667,25.7833,37.0,89,100,1.01,RO,1611515865
Pandamatenga,-18.5278,25.627,69.69,83,98,2.64,BW,1611516132
Zyryanka,65.75,150.85,-28.82,85,100,2.48,RU,1611515845
Houma,29.5958,-90.7195,77.0,83,90,9.22,US,1611516133
Talaya,61.3833,152.75,-40.16,78,100,2.86,RU,1611516133
Asău,46.4333,26.4,36.0,66,96,3.38,RO,1611516133
Trelew,-43.249,-65.3051,85.68,39,0,13.73,AR,1611516055
Freeport,40.6576,-73.5832,32.0,29,1,13.8,US,1611516002
Atikokan,48.7555,-91.6216,5.04,92,100,9.37,CA,1611516133
Savannah Bight,16.45,-85.85,86.0,62,75,10.36,HN,1611516133
Souillac,-20.5167,57.5167,78.8,83,75,1.14,MU,1611516133
Norman Wells,65.282,-126.8329,-13.0,84,90,2.3,CA,1611516134
Makīnsk,52.6292,70.4169,-11.76,89,100,9.53,KZ,1611516134
Santa Rosa,14.3122,121.1114,79.0,89,20,1.14,PH,1611516134
Changping,40.2186,116.2197,32.0,79,100,1.05,CN,1611516134
Buraidah,26.326,43.975,57.2,35,0,10.36,SA,1611515885
Yārāda,17.65,83.2667,73.4,100,20,2.3,IN,1611516134
Aykhal,66.0,111.5,-36.4,80,7,3.0,RU,1611516134
Buala,-8.145,159.5921,77.85,71,57,4.07,SB,1611515890
Margate,51.3813,1.3862,37.0,86,100,3.0,GB,1611516124
Port-Gentil,-0.7193,8.7815,80.6,89,20,5.75,GA,1611516135
Camacha,33.0833,-16.3333,62.6,82,20,3.44,PT,1611516135
Kupang,-10.1667,123.5833,79.61,79,100,3.62,ID,1611516135
Arrondissement de Vire,48.9167,-0.8333,33.8,93,75,8.05,FR,1611516135
Yumen,40.2833,97.2,17.92,86,0,10.67,CN,1611516135
Kungurtug,50.5994,97.5228,-3.77,87,100,2.19,RU,1611516135
Mayumba,-3.432,10.6554,79.39,85,97,6.58,GA,1611516135
Hue,16.4667,107.6,66.2,100,20,4.61,VN,1611516043
Lewisburg,35.4492,-86.7889,50.0,81,75,12.37,US,1611516136
Virginia Beach,36.8529,-75.978,39.99,52,34,6.89,US,1611516136
Ormara,25.2088,64.6357,66.45,37,0,3.42,PK,1611516136
Boda,4.3189,17.4695,79.02,22,95,2.66,CF,1611516136
Guerrero Negro,27.9769,-114.0611,62.74,50,29,20.09,MX,1611516136
Kemijärvi,66.7131,27.4306,14.43,97,96,1.54,FI,1611516136
Porto Nacional,-10.7081,-48.4172,89.6,48,40,2.3,BR,1611516136
Nizhniy Baskunchak,48.2198,46.8311,29.12,97,31,10.63,RU,1611516137
Dalbandin,28.8947,64.4101,41.49,45,0,5.48,PK,1611516137
Bentiu,9.2333,29.8333,78.85,24,5,3.58,SS,1611516137
Smidovich,48.6,133.8167,-0.06,82,41,5.86,RU,1611516137
Paamiut,61.994,-49.6678,21.65,79,0,13.35,GL,1611516137
Fare,-16.7,-151.0167,81.48,72,0,13.15,PF,1611516137
Rome,43.2128,-75.4557,19.99,53,1,12.66,US,1611516079
Korla,41.7597,86.1469,21.78,82,0,3.69,CN,1611516138
Cervo,43.6702,-7.4101,51.01,91,100,4.0,ES,1611516138
Grand-Santi,4.25,-54.3833,80.1,89,99,3.98,GF,1611516138
Seoul,37.5683,126.9778,35.6,93,85,4.61,KR,1611515952
Yevsino,54.4172,83.3222,-42.74,80,38,4.94,RU,1611516138
Malanje,-9.5402,16.341,65.91,94,100,3.94,AO,1611516138
Rafsanjān,30.4067,55.9939,40.08,56,0,0.56,IR,1611516138
Ciudad Bolivar,8.1222,-63.5497,90.97,40,100,11.16,VE,1611516139
Tahe,52.3333,124.7333,-10.39,81,100,0.85,CN,1611516139
Alofi,-19.0595,-169.9187,77.0,94,100,1.14,NU,1611516139
Koppa,13.5304,75.3633,64.69,57,0,3.62,IN,1611516139
Sasolburg,-26.8136,27.817,64.63,88,100,17.11,ZA,1611516139
Henties Bay,-22.116,14.2845,70.0,87,100,8.9,NA,1611516139
Oakland,42.6667,-83.3999,25.0,80,90,8.05,US,1611516139
Belyy Yar,53.6039,91.3903,8.6,47,0,8.95,RU,1611516139
Marsabit,2.3284,37.9899,71.4,60,0,12.39,KE,1611516139
Ghanzi,-21.5667,21.7833,80.06,30,95,10.25,BW,1611516140
Belaya Gora,68.5333,146.4167,-33.03,83,100,2.82,RU,1611516140
Mossamedes,-15.1961,12.1522,76.48,75,100,8.41,AO,1611516140
Mana,5.6592,-53.7767,79.56,76,83,12.57,GF,1611516140
Murray Bridge,-35.1167,139.2667,78.01,40,100,2.8,AU,1611516140
Juba,4.8517,31.5825,85.15,37,81,2.89,SS,1611516140
Saint-François,46.4154,3.9054,37.99,93,90,8.05,FR,1611516140
Aleksandrov Gay,50.147,48.5704,24.37,98,1,10.18,RU,1611516140
Brownsville,25.9018,-97.4975,80.6,69,75,24.16,US,1611515945
Egvekinot,66.3167,-179.1667,-3.33,85,0,6.62,RU,1611516141
Il'inskoye-Khovanskoye,56.9718,39.7684,33.8,100,90,6.71,RU,1611516141
Damaturu,11.747,11.9608,74.12,19,100,11.16,NG,1611516141
Nouadhibou,20.931,-17.0347,71.6,64,100,10.36,MR,1611515852
Mago,53.2514,140.1822,-25.56,79,0,5.57,RU,1611516141
Hamilton,39.1834,-84.5333,33.8,75,90,3.44,US,1611516102
Coquimbo,-29.9533,-71.3436,71.6,64,20,12.66,CL,1611516141
Sennar,13.5691,33.5672,81.36,26,0,13.11,SD,1611516141
Klaksvík,62.2266,-6.589,35.6,75,100,21.85,FO,1611516072
Luwuk,-0.9516,122.7875,77.85,76,100,6.35,ID,1611516142
Obo,5.3998,26.4869,79.54,37,100,2.13,CF,1611515925
Senneterre,48.3835,-77.2328,6.8,56,40,8.05,CA,1611516142
Warrnambool,-38.3833,142.4833,71.01,55,23,7.43,AU,1611516142
Montepuez,-13.1256,38.9997,71.08,96,100,3.18,MZ,1611516142
Levelland,33.5873,-102.378,53.01,87,90,12.66,US,1611516142
Ukiah,39.1502,-123.2078,42.8,75,90,2.37,US,1611515877
Clarence Town,-32.5833,151.7833,66.0,94,3,2.3,AU,1611516143
Raudeberg,61.9875,5.1352,36.0,74,0,13.13,NO,1611516143
Guilin,25.2819,110.2864,57.2,82,90,2.8,CN,1611516143
Bengkulu,-3.8004,102.2655,78.08,80,96,5.28,ID,1611516143
Hualmay,-11.0964,-77.6139,77.72,61,20,10.45,PE,1611516143
Aranda de Duero,41.6704,-3.6892,40.95,83,59,13.94,ES,1611516143
Linxia Chengguanzhen,35.6003,103.2064,24.22,89,100,4.34,CN,1611516144
San Cristobal,7.7669,-72.225,80.6,65,40,9.22,VE,1611516144
Myre,69.1036,15.9492,21.2,79,90,8.05,NO,1611516144
Sovetskiy,61.3614,63.5842,-18.38,88,100,7.16,RU,1611516144
La Ronge,55.1001,-105.2842,-25.6,62,42,3.44,CA,1611516144
General Pico,-35.6566,-63.7568,106.16,15,0,12.46,AR,1611516144
North Bend,43.4065,-124.2243,44.6,93,90,9.22,US,1611516144
Touros,-5.1989,-35.4608,75.2,94,75,6.91,BR,1611516144
Pangnirtung,66.1451,-65.7125,10.4,72,75,3.38,CA,1611516145
Deder,9.3167,41.45,55.47,54,22,4.12,ET,1611516145
Lingao,19.9103,109.6859,66.63,87,5,14.7,CN,1611516145
Beyneu,45.3167,55.2,32.14,96,0,13.6,KZ,1611516145
Naantali,60.4674,22.0243,32.0,93,90,5.75,FI,1611516145
Ābādān,30.3392,48.3043,51.8,58,0,4.61,IR,1611516094
Fortuna,40.5982,-124.1573,46.0,100,90,6.91,US,1611516146
Poum,-20.2333,164.0167,79.63,81,100,13.53,NC,1611516146
Moerai,-22.4333,-151.3333,80.2,76,1,13.27,PF,1611516146
Machico,32.7,-16.7667,64.4,82,40,4.61,PT,1611516146
Shihezi,44.3,86.0333,11.26,94,100,5.03,CN,1611516146
Sonoita,31.85,-112.8333,50.0,65,98,5.1,MX,1611516146
Meadow Lake,34.8014,-106.5436,57.0,35,75,12.66,US,1611516147
Dakar,14.6937,-17.4441,71.6,53,0,9.22,SN,1611515869
Marawi,7.9986,124.2928,73.99,93,100,5.99,PH,1611515859
Bairiki Village,1.3292,172.9752,75.2,88,20,3.44,KI,1611516147
Kirakira,-10.4544,161.9205,79.57,79,100,7.38,SB,1611515876
Vao,-22.6667,167.4833,76.19,76,100,22.48,NC,1611516147
Yerbogachën,61.2767,108.0108,-34.98,82,96,2.57,RU,1611516147
Juli,-16.2167,-69.45,52.29,60,4,9.73,PE,1611516148
Cooma,-36.2333,149.1333,60.8,63,90,10.36,AU,1611516112
Ivdel',60.6911,60.4206,-17.99,87,100,1.99,RU,1611516148
Bazaliia,49.7127,26.4733,34.7,89,94,8.12,UA,1611516148
Payo,-3.7508,103.6372,74.34,94,100,1.83,ID,1611516148
Plettenberg Bay,-34.0527,23.3716,64.6,79,52,14.7,ZA,1611516149
Oistins,13.0667,-59.5333,82.4,65,75,14.97,BB,1611516149
Dali,25.7,100.1833,42.82,83,1,4.83,CN,1611516149
Msowero,-6.5333,37.2,71.69,91,100,2.26,TZ,1611516149
Katobu,-4.9408,122.5276,75.87,89,100,3.53,ID,1611516128
Anzio,41.4853,12.6179,50.0,75,28,8.01,IT,1611516149
Rudnaya Pristan',44.3614,135.8116,22.91,88,57,10.29,RU,1611516149
Safi,32.2994,-9.2372,59.86,81,100,11.45,MA,1611516150
Ketchikan,55.3422,-131.6461,35.6,100,75,3.44,US,1611516150
Erechim,-27.6342,-52.2739,78.8,73,75,9.22,BR,1611516150
Brunswick,41.2381,-81.8418,30.0,59,90,9.22,US,1611515734
Río Gallegos,-51.6226,-69.2181,78.8,13,20,27.63,AR,1611515870
Ballina,-28.8667,153.5667,66.2,94,75,4.61,AU,1611516150
Dalen,52.6992,6.7556,34.0,95,87,4.32,NL,1611516150
Orlik,52.5178,99.825,-5.03,86,100,2.68,RU,1611516150
Te Anau,-45.4167,167.7167,55.42,86,100,5.77,NZ,1611516022
Aljezur,37.3191,-8.8033,57.0,100,100,3.0,PT,1611516151
Mount Isa,-20.7333,139.5,80.6,61,100,4.61,AU,1611516151
Mtwara,-10.2667,40.1833,79.48,77,100,3.47,TZ,1611516151
Russell,32.3502,-85.1999,62.01,58,90,5.75,US,1611516151
Oranjestad,12.524,-70.027,86.0,62,20,23.02,AW,1611516148
Meulaboh,4.1363,96.1285,77.63,83,64,4.03,ID,1611516151
Mīrābād,30.4362,61.8383,36.68,56,0,1.63,AF,1611516151
Harper,4.375,-7.7169,78.98,85,0,10.36,LR,1611516151
Colinas,-6.0258,-44.2492,88.86,57,60,5.46,BR,1611516102
Arrondissement de Bressuire,46.9167,-0.5,41.0,89,98,12.71,FR,1611516152
Mersing,2.4312,103.8405,78.8,83,99,5.75,MY,1611516152
Guru Har Sahāi,30.7167,74.4167,48.63,59,0,3.76,IN,1611516152
Tarauacá,-8.1614,-70.7656,82.24,67,100,2.35,BR,1611516152
Johi,26.6921,67.6133,50.74,30,0,4.18,PK,1611516153
Klisura,42.7,24.45,48.99,75,75,6.91,BG,1611516153
Peñal,10.1667,-61.4667,86.0,70,20,4.0,TT,1611516153
Lewistown,40.5992,-77.5714,32.0,40,1,3.44,US,1611516153
Los Llanos de Aridane,28.6585,-17.9182,66.2,82,40,3.44,ES,1611516153
Soyo,-6.1349,12.3689,79.54,83,100,8.1,AO,1611516154
Angoche,-16.2325,39.9086,80.06,88,100,8.34,MZ,1611515893
Coahuayana Viejo,18.7333,-103.6833,80.6,44,40,6.91,MX,1611516154
Kavieng,-2.5744,150.7967,82.47,73,90,6.49,PG,1611516154
Savonlinna,61.8699,28.88,33.8,100,90,5.75,FI,1611516154
Nyurba,63.2842,118.3319,-48.19,75,21,4.63,RU,1611516154
Tromsø,69.6496,18.957,15.8,67,40,6.91,NO,1611516154
Kondinskoye,59.6481,67.41,-18.51,88,100,10.69,RU,1611516154
Maunabo,18.0072,-65.8993,82.99,74,4,7.0,PR,1611516155
Nguruka,-5.1092,31.0419,67.37,87,100,0.58,TZ,1611516155
‘Āhuimanu,21.4447,-157.8378,77.0,73,75,13.8,US,1611516155
Southbridge,42.0751,-72.0334,27.0,21,1,1.99,US,1611516155
Skjervøy,70.0311,20.9714,10.4,61,75,8.05,NO,1611516155
Prince Rupert,54.3161,-130.3201,37.4,100,90,5.75,CA,1611516155
Amapá,1.0,-52.0,80.69,86,5,4.18,BR,1611516155
Anápolis,-16.3267,-48.9528,82.4,36,75,4.61,BR,1611515917
Kut Chap,17.4257,102.5669,72.0,63,22,1.81,TH,1611516156
Filimonovo,56.2011,95.4611,-0.47,90,100,4.5,RU,1611516156
Eyl,7.9803,49.8164,72.52,72,51,18.72,SO,1611516156
Neftçala,39.3742,49.2472,41.86,79,0,2.82,AZ,1611516156
Taltal,-25.4,-70.4833,72.5,54,22,6.87,CL,1611516156
Sorong,-0.8833,131.25,79.65,80,100,5.48,ID,1611516156
Yazman,29.1212,71.7446,54.59,33,0,7.72,PK,1611516156
Chepareria,1.3077,35.2039,64.22,60,88,5.48,KE,1611516156
Nioro,13.35,-15.75,85.53,11,0,4.94,GM,1611515889
Topeka,39.0483,-95.678,39.2,56,90,8.05,US,1611516157
Broken Hill,-31.95,141.4333,87.8,16,100,9.22,AU,1611516157
Bowen,-20.0167,148.2333,71.6,94,40,5.75,AU,1611515939
Saint Anthony,45.0205,-93.218,25.0,63,1,5.75,US,1611516157
La Ermita,20.4139,-101.9936,79.61,24,100,6.08,MX,1611516157
Paita,-5.0892,-81.1144,89.6,48,40,12.66,PE,1611516157
Mil'kovo,54.7167,158.6167,-11.58,85,90,1.48,RU,1611516157
Kirando,-7.4167,30.6,75.34,71,100,2.84,TZ,1611516158
Havøysund,70.9963,24.6622,23.0,63,40,14.97,NO,1611516129
Kholbon,51.8833,116.25,3.87,91,100,8.57,RU,1611516158
Sungai Penuh,-2.0833,101.3833,64.81,91,100,2.08,ID,1611516158
Katherine,-14.4667,132.2667,77.0,94,75,6.15,AU,1611516158
Yokadouma,3.5167,15.05,76.28,30,47,1.61,CM,1611516158
Rāmgarh,23.6333,85.5167,62.6,72,0,0.96,IN,1611516158
Ugoofaaru,5.6667,73.0,81.14,79,85,12.84,MV,1611516159
Līsakovsk,52.5369,62.4936,14.0,96,95,12.75,KZ,1611516159
İdil,37.3411,41.8895,37.15,72,100,4.56,TR,1611516159
Lázaro Cárdenas,17.9583,-102.2,82.29,63,100,7.52,MX,1611516159
Vardø,70.3705,31.1107,24.8,86,75,23.02,NO,1611516159
Quinapondan,11.1574,125.5209,76.14,87,10,6.67,PH,1611516159
Cabrobó,-8.5142,-39.31,92.16,33,100,17.16,BR,1611516159
Aksu,41.1231,80.2644,18.64,88,0,3.33,CN,1611516159
Xingcheng,40.6167,120.7167,29.28,89,46,2.1,CN,1611516159
Karligan,14.975,122.0456,78.1,87,69,6.11,PH,1611516160
Rabo de Peixe,37.8,-25.5833,64.0,94,40,13.8,PT,1611516102
Arinos,-15.9169,-46.1056,84.7,47,75,5.64,BR,1611516160
Lazarev,52.225,141.5131,-18.13,80,0,8.88,RU,1611516160
Aranos,-24.1333,19.1167,86.61,29,97,16.67,NA,1611516072
Yeppoon,-23.1333,150.7333,71.6,88,9,5.75,AU,1611516160
Sooke,48.3746,-123.7276,41.0,83,100,6.91,CA,1611516160
Concordia,-31.393,-58.0209,95.0,43,40,14.97,AR,1611516160
Hinton,53.4001,-117.5857,21.2,68,100,3.44,CA,1611516160
Ayagoz,47.9714,80.4392,-15.11,88,0,6.49,KZ,1611516161
Orocué,4.7912,-71.3354,88.12,56,76,10.38,CO,1611516161
Nelson,-41.2833,173.2833,63.0,63,14,12.08,NZ,1611516161
Kumul,42.8,93.45,19.72,80,53,6.58,CN,1611516161
Zherdevka,51.8486,41.4606,33.03,94,100,14.29,RU,1611516161
Bayir,37.2687,28.2167,55.4,82,75,4.61,TR,1611516161
Ambilobe,-13.2,49.05,75.43,91,99,3.74,MG,1611516161
Ust'-Omchug,61.15,149.6333,-35.32,76,51,5.41,RU,1611516161
Poltavka,54.3663,71.7632,-22.56,85,100,10.58,RU,1611516161
Ocós,14.5094,-92.1933,93.2,48,20,5.75,GT,1611516162
San Lazaro,18.0387,-88.6622,84.2,65,40,13.8,BZ,1611516162
Qaryat Sulūq,31.6682,20.2521,57.42,79,100,3.33,LY,1611516162
Mâncio Lima,-7.6142,-72.8958,82.4,94,75,2.3,BR,1611516162
Canandaigua,42.8742,-77.288,24.01,64,100,6.62,US,1611516162
Santiago del Estero,-27.7951,-64.2615,97.09,34,84,10.38,AR,1611516162
Dzhebariki-Khaya,62.2167,135.8,-52.35,75,98,1.45,RU,1611516163
Havre-St-Pierre,50.2334,-63.5986,35.6,69,90,14.97,CA,1611516163
Bandarbeyla,9.4942,50.8122,74.05,69,94,20.51,SO,1611515865
Nishifukuma,33.7667,130.4667,44.01,81,5,5.75,JP,1611516163
Kirovskiy,45.0917,133.5136,0.52,92,0,2.37,RU,1611516163
Tyumentsevo,53.3224,81.498,-39.96,81,25,6.08,RU,1611516163
Mnogovershinnyy,53.9353,139.9242,-30.86,81,0,5.59,RU,1611516163
Vakhrushev,48.9833,142.9667,-3.03,87,0,8.34,RU,1611516164
